ŠµÁ11,MTKGPS*08
$PMTK010,001*2E
$PMTK010,002*2D
$GPGGA,23594$GPGGA,235943.800,,,,,0,00,,,M,,M,,*7A
$GPGSA,A,1,,,,,,,,,,,,,$GPGGA,235944.799,,,,,0,00,,,M,,M,,*72
$GPGSA,A,1,,,,,,,,,,,,,m:54,11385
m:248,2182
m:49,7968
m:50,-31731
m:42,26865
m:55,3170
m:54,-22834
m:49,-3446
m:51,-22267
m:43,-14452
m:54,-13104
m:53,-28886
m:49,-25009
m:54,-19260
m:46,1902
m:44,-19137
m:48,-23980
m:50,-10358
m:51,-1004
m:47,-23690
m:49,-3253
m:42,1665
m:48,19830
m:43,-18057
m:41,-3447
m:52,-32432
m:43,-29312
m:41,-21289
m:45,-8094
m:53,-25990
m:45,-4046
m:50,9808
$GPGGA,235945.799,,,,,0,00,,,M,,M,,*73
$GPGSA,A,1,,,,,,,,,,,,,$GPGGA,235946.799,,,,,0,00,,,M,,M,,*70
$GPGSA,A,1,,,,,,,,,,,,,$GPGGA,235947.799,,,,,0,00,,,M,,M,,*71
$GPGSA,A,1,,,,,,,,,,,,,$GPGGA,235948.799,,,,,0,00,,,M,,M,,*7E
$GPGSA,A,1,,,,,,,,,,,,,m:43,2185
m:47,28923
m:44,30184
m:50,2317
m:46,-3692
m:48,24782
m:44,29241
m:46,-4765
m:39,10549
m:41,18942
m:48,-11149
m:50,-29109
m:45,15413
m:48,-5726
m:46,-10574
m:241,2978
m:365,-6672
m:353,-17408
m:238,-19457
m:62,-7996
m:60,12931
m:294,10772
m:192,-11988
m:427,-2592
m:842,-11018
m:167,-29572
m:500,-17792
m:39,-25758
m:35,2970
m:460,4063
m:326,-7457
m:198,850
$GPGGA,235949.799,,,,,0,00,,,M,,M,,*7F
$GPGSA,A,1,,,,,,,,,,,,,$GPGGA,235950.800,,,,,0,00,,,M,,M,,*78
$GPGSA,A,1,,,,,,,,,,,,,$GPGGA,235951.800,,,,,0,00,,,M,,M,,*79
$GPGSA,A,1,,,,,,,,,,,,,$GPGGA,235952.800,,,,,0,00,,,M,,M,,*7A
$GPGSA,A,1,,,,,,,,,,,,,$GPGGA,235953.800,,,,,0,00,,m:515,-1921
m:229,18008
m:354,-10120
m:348,13416
m:129,-22274
m:18,-5447
m:36,-22989
m:48,-22016
m:55,-25700
m:284,19542
m:103,-20106
m:56,-28184
m:233,-1699
m:216,26196
m:52,-9292
m:48,-15052
m:42,-2665
m:43,-8153
m:37,-10363
m:47,21869
m:37,-20296
m:41,-25723
m:40,6722
m:44,-15356
m:47,6281
m:45,-1182
m:41,-2264
m:52,-17056
m:40,4514
m:58,-27144
m:48,27126
m:37,3070
,M,,M,,*7B
$GPGSA,A,1,,,,,,,,,,,,,,,*1E
$GPRMC,235953.800,V,,$GPGGA,235954.800,,,,,0,00,,,M,,M,,*7C
$GPGSA,A,1,,,,,,,,,,,,,$GPGGA,235955.800,,,,,0,00,,,M,,M,,*7D
$GPGSA,A,1,,,,,,,,,,,,,,,*1E
$GPRMC,235955.800,V,,,,,0.00,0.00,0$GPGGA,235956.800,,,,,0,00,,,M,,M,,*7E
$GPGSA,A,1,,,,,,,,,,,,,,,0.00,0.00,050180,,,N*47
$GPVTG,0.00,T,,M,0.00,N,0.00,K,N*32
$GPGGA,235957.800,,,,,0,00,,,M,,M,,*7F
$GPGSA,A,1,,,,,,,,,,,,,m:42,-25631
m:43,-26564
m:43,-19139
m:45,32733
m:41,-1476
m:37,16591
m:46,-5744
m:49,-30237
m:47,-11350
m:44,29943
m:38,28484
m:48,126
m:38,-17448
m:41,-19174
m:39,23018
m:45,7602
m:43,15025
m:41,-19768
m:51,19172
m:46,24198
m:45,-8425
m:40,-12419
m:33,-29412
m:37,11803
m:45,-28337
m:43,24050
m:50,29500
m:39,13388
m:40,-17496
m:35,14022
m:41,20021
m:52,-32716
$GPGGA,235958.800,,,,,0,00,,,M,,M,,*70
$GPGSA,A,1,,,,,,,,,,,,,.N,0.00,K,N*32
$GPGGA,235959.800,,,,,0,00,,,M,,M,,*71
$GPGSA,A,1,,,,,,,,,,,,,$GPGGA,000000.800,,,,,0,00,,,M,,M,,*70
$GPGSA,A,1,,,,,,,,,,,,,$GPGGA,000001.800,,,,,0,00,,,M,,M,,*71
$GPGSA,A,1,,,,,,,,,,,,,m:39,-17923
m:35,29004
m:42,25517
m:45,19252
m:48,10729
m:41,-12056
m:42,21033
m:43,16426
m:45,-10958
m:44,-25146
m:35,-3866
m:36,400
m:41,24916
m:43,3116
m:36,-7736
m:57,25040
m:48,17703
m:37,-1952
m:47,292
m:39,7865
m:46,-19346
m:42,7736
m:43,-29179
m:43,19009
m:46,-5696
m:39,21688
m:42,-13659
m:33,339
m:44,-26605
m:41,-30456
m:39,-32194
m:42,13276
$GPGGA,000002.800,,,,,0,00,,,M,,M,,*72
$GPGSA,A,1,,,,,,,,,,,,,$GPGGA,000003.800,,,,,0,00,,,M,,M,,*73
$GPGSA,A,1,,,,,,,,,,,,,$GPGGA,000004.583,,,,,0,00,,,M,,M,,*72
$GPGSA,A,1,,,,,,,,,,,,,,,*1E
$GPRMC,000004.583,V,,,,,0.00,0.00,060180,,,N*48
$GPVTG,0.00,T,,M,0.00,N$GPGGA,000005.583,,,,,0,00,,,M,,M,,*73
$GPGSA,A,1,,,,,,,,,,,,,m:43,-28972
m:47,-5449
m:38,-31564
m:44,21809
m:37,-21488
m:37,20122
m:45,-12482
m:38,11654
m:36,-12810
m:44,20932
m:40,-18764
m:42,-27858
m:44,5865
m:46,15887
m:50,-17490
m:41,24173
m:2196,2195
m:2196,2195
m:40,14216
m:49,19742
m:45,5003
m:2196,2195
m:2196,2195
m:46,5722
m:34,23052
m:51,4883
m:40,2754
m:44,21828
m:38,-30896
m:40,15510
m:42,-984
m:39,19650
$GPGGA,150650.099,,,,,0,00,,,M,,M,,*7F
$GPGSA,A,1,,,,,,,,,,,,,C0650.099,V,,,,,0.00,0.00,090180,,,N*4A
$GPVTG,0.00,T,,M,0.00,N,0.00,$GPGGA,150651.099,,,,,0,00,,,M,,M,,*7E
$GPGSA,A,1,,,,,,,,,,,,,$GPGGA,150652.099,,,,,0,00,,,M,,M,,*7D
$GPGSA,A,1,,,,,,,,,,,,,$GPGGA,150653.099,,,,,0,00,,,M,,M,,*7C
$GPGSA,A,1,,,,,,,,,,,,,m:149,1868
m:44,-24771
m:38,8586
m:39,5540
m:42,7982
m:44,30383
m:40,-4859
m:51,-7128
m:42,-22044
m:40,13880
m:35,6991
m:39,25890
m:43,-21806
m:50,-67
m:47,26418
m:45,-20370
m:44,22795
m:36,-4443
m:42,23747
m:48,-11416
m:48,-4000
m:40,-731
m:42,27332
m:51,-12737
m:44,-3555
m:41,-1840
m:36,25278
m:44,25602
m:36,-2420
m:38,11648
m:46,6964
m:41,-7238
$GPGGA,150654.099,,,,,0,00,,,M,,M,,*7B
$GPGSA,A,1,,,,,,,,,,,,,$GPGGA,150655.099,,,,,0,00,,,M,,M,,*7A
$GPGSA,A,1,,,,,,,,,,,,,$GPGGA,150656.099,,,,,0,00,,,M,,M,,*79
$GPGSA,A,1,,,,,,,,,,,,,$GPGGA,150657.099,,,,,0,00,,,M,,M,,*78
$GPGSA,A,1,,,,,,,,,,,,,m:37,-6257
m:36,-16892
m:50,12628
m:46,31082
m:34,-2384
m:54,16938
m:47,4506
m:45,-14000
m:40,-7706
m:38,-28024
m:50,-15357
m:39,-23477
m:43,14320
m:44,-190
m:42,18434
m:35,15039
m:34,-26040
m:39,-16395
m:46,-16182
m:44,-19949
m:31,-28148
m:38,28476
m:47,-15094
m:58,30253
m:42,11276
m:42,-18963
m:42,-2873
m:33,18192
m:42,-13978
m:34,-29748
m:40,-16677
m:37,-15523
$GPGGA,150658.099,,,,,0,00,,,M,,M,,*77
$GPGSA,A,1,,,,,,,,,,,,,$GPGGA,150659.099,,,,,0,00,,,M,,M,,*76
$GPGSA,A,1,,,,,,,,,,,,,$GPGGA,150700.085,,,,,0,00,,,M,,M,,*76
$GPGSA,A,1,,,,,,,,,,,,,$GPGGA,150701.085,,,,,0,00,,,M,,M,,*77
$GPGSA,A,1,,,,,,,,,,,,,PRMC,150701.085,V,,,,,0.00,0.00,040718,,,N*48
$GPVTG,0.00,T,,M,0.00,m:45,32356
m:37,-12054
m:42,27470
m:45,19433
m:40,20031
m:44,-23296
m:44,-19977
m:39,15343
m:35,14174
m:40,-2716
m:35,31535
m:42,-15870
m:39,-20512
m:46,-16267
m:38,-20867
m:37,8356
m:41,26953
m:40,6932
m:43,-17496
m:43,-9392
m:39,26873
m:40,-10508
m:41,-16363
m:44,31616
m:40,-6713
m:43,4392
m:42,29624
m:42,9759
m:51,20174
m:32,28012
m:40,20810
m:43,-4188
$GPGGA,150702.085,,,,,0,00,,,M,,M,,*74
$GPGSA,A,1,,,,,,,,,,,,,$GPGGA,150703.085,,,,,0,00,,,M,,M,,*75
$GPGSA,A,1,,,,,,,,,,,,,,0,040718,,,N*4A
$GPVTG,0.00,T,,M,0.00,N,0.00,K,N*32
$GPGGA,150704.085,,,,,0,00,,,M,,M,,*72
$GPGSA,A,1,,,,,,,,,,,,,$GPGGA,150705.085,,,,,0,00,,,M,,M,,*73
$GPGSA,A,1,,,,,,,,,,,,,m:40,23049
m:39,-16529
m:40,-9454
m:36,-24509
m:46,18481
m:52,18128
m:45,-25310
m:42,16850
m:51,1706
m:52,-31168
m:40,12308
m:47,-14159
m:39,-3846
m:33,8578
m:47,-2680
m:52,-9722
m:39,-32034
m:41,-14394
m:50,-26876
m:44,-22506
m:42,5320
m:39,20648
m:37,-16882
m:40,-12108
m:41,9696
m:40,29403
m:47,15337
m:47,11346
m:37,4242
m:36,3546
m:39,-21074
m:30,-6869
$GPGGA,150706.085,,,,,0,00,,,M,,M,,*70
$GPGSA,A,1,,,,,,,,,,,,,$GPGGA,150707.304,,,,,0,00,,,M,,M,,*7B
$GPGSA,A,1,,,,,,,,,,,,,,,*1E
$GPRMC,150707.304,V,,,,,0.00,0.00,040$GPGGA,150708.304,,,,,0,00,,,M,,M,,*74
$GPGSA,A,1,,,,,,,,,,,,,0,T,,M,0.00,N,0.00,K,N*32
$GPGGA,150709.304,,,,,0,00,,,M,,M,,*75
$GPGSA,A,1,,,,,,,,,,,,,m:50,-21562
m:44,16465
m:42,32406
m:38,-4773
m:45,-31920
m:46,-14104
m:31,16444
m:40,-1764
m:34,-14724
m:44,32728
m:54,23050
m:36,-9514
m:46,26393
m:39,-6824
m:40,-23132
m:31,-16931
m:47,-18875
m:35,-12281
m:42,-12136
m:39,31610
m:36,31926
m:42,-20470
m:43,-25258
m:35,-5644
m:36,-24551
m:29,-17176
m:44,2634
m:41,7819
m:46,22868
m:35,26252
m:42,28727
m:44,-7445
$GPGGA,150710.304,,,,,0,00,,,M,,M,,*7D
$GPGSA,A,1,,,,,,,,,,,,,$GPGGA,150711.304,,,,,0,00,,,M,,M,,*7C
$GPGSA,A,1,,,,,,,,,,,,,$GPGGA,150712.085,,,,,0,00,,,M,,M,,*75
$GPGSA,A,1,,,,,,,,,,,,,$GPGGA,150713.085,,,,,0,00,,,M,,M,,*74
$GPGSA,A,1,,,,,,,,,,,,,,,*1E
$GPRMC,150713.085,V,,,,$GPGGA,150714.085,,,,,0,00,,,M,,M,,*73
$GPGSA,A,1,,,,,,,,,,,,,,00,0.m:46,-20796
m:37,30302
m:36,-28619
m:38,-23975
m:42,-19580
m:44,-3149
m:49,-6453
m:41,10461
m:43,-7172
m:41,4824
m:33,23974
m:37,-12348
m:40,9990
m:37,12116
m:40,30700
m:40,11760
m:44,4325
m:50,-25994
m:44,-12679
m:46,15788
m:40,-7322
m:44,-29789
m:38,-25640
m:41,29898
m:42,-18240
m:37,-31570
m:47,7586
m:41,-9404
m:33,18400
m:54,10504
m:34,-10039
m:46,17713
00,040718,,,N*4C
$GPVTG,0.00,T,,M,0.00,N,0.00,K,N*32
$GPGGA,1C50715.085,V,,,,,0.00,0.00,040718,,,N*4D
$GPVTG,0.00,T,,M,0.00,N,0.00$GPGGA,150716.085,,,,,0,00,,,M,,M,,*71
$GPGSA,A,1,,,,,,,,,,,,,,,*1E
$GPRMC,150716.085,V,,,,,0.00,0.00,04$GPGGA,150717.085,,,,,0,00,,,M,,M,,*70
$GPGSA,A,1,,,,,,,,,,,,,418,,,N*4F
$GPVTG,0.00,T,,M,0.00,N,0.00,K,N*32
$GPGGA,150718.085,,,,,0,00,,,M,,M,,*7F
$GPGSA,A,1,,,,,,,,,,,,,$GPGGA,1m:39,-22128
m:39,-318
m:38,-29020
m:39,-2624
m:38,16000
m:47,11636
m:35,15698
m:38,-10338
m:45,5379
m:36,-27664
m:46,3158
m:36,-13498
m:34,5184
m:39,8192
m:35,12243
m:41,5555
m:37,15796
m:40,-4134
m:39,-7462
m:40,26080
m:29,-19238
m:45,31435
m:43,-1407
m:45,-9400
m:35,25016
m:49,24212
m:38,-24997
m:44,-19030
m:47,-21564
m:37,-10379
m:36,-10400
m:42,-25345
50718.299,,,,,0,00,,,M,,M,,*70
$GPGSA,A,1,,,,,,,,,,,,,,,*1E
$$GPGGA,150719.299,,,,,0,00,,,M,,M,,*71
$GPGSA,A,1,,,,,,,,,,,,,$GPGGA,150720.299,,,,,0,00,,,M,,M,,*7B
$GPGSA,A,1,,,,,,,,,,,,,,,*1E
$GPRMC,150720.299,V,,,,,0.00,0.00,040$GPGGA,150721.299,,,,,0,00,,,M,,M,,*7A
$GPGSA,A,1,,,,,,,,,,,,,1721.299,V,,,,,0.00,0.00,040718,,,N*45
$GPVTG,0.00,T,,M,0.00,N,0.00,m:40,27416
m:42,2953
m:31,22338
m:44,-20090
m:52,20375
m:47,-27364
m:51,-17186
m:43,32410
m:43,-689
m:44,-6667
m:33,24274
m:39,13948
m:37,-31468
m:37,4550
m:41,-8028
m:41,-20393
m:42,-8517
m:33,-28969
m:39,25128
m:39,27068
m:40,-11686
m:44,-27290
m:34,27903
m:45,-18150
m:44,24916
m:43,-22211
m:43,2644
m:41,7687
m:44,-10741
m:48,28384
m:43,-12741
m:40,-11725
$GPGGA,150722.299,,,,,0,00,,,M,,M,,*79
$GPGSA,A,1,,,,,,,,,,,,,$GPGGA,150723.299,,,,,0,00,,,M,,M,,*78
$GPGSA,A,1,,,,,,,,,,,,,
PVTG,0.00,T,,M,0.00,N,0.00,K,N*32
$GPGGA,150724.098,,,,,0,00,,,M,,M,,*7C
$GPGSA,A,1,,,,,,,,,,,,,$GPGGA,150725.098,,,,,0,00,,,M,,M,,*7D
$GPGSA,A,1,,,,,,,,,,,,,,0,N,0.00,K,N*32
$GPGGA,150726.098,,,,,0,00,,,M,,M,,*7E
$GPGSA,A,1,,,,,,,,,,,,,m:39,-18865
m:42,15740
m:38,-24376
m:34,-9632
m:37,24464
m:39,7691
m:37,22347
m:43,-14904
m:35,-9450
m:36,-248
m:39,21707
m:39,-9644
m:45,-5866
m:43,-6496
m:46,17998
m:28,-24376
m:42,22811
m:41,12555
m:39,-5672
m:45,3186
m:40,-29662
m:49,17408
m:39,11853
m:39,18019
m:43,10432
m:46,26244
m:44,-10124
m:39,25565
m:47,6144
m:36,-13574
m:42,15628
m:37,-6058
$GPGGA,150727.098,,,,,0,00,,,M,,M,,*7F
$GPGSA,A,1,,,,,,,,,,,,,$GPGGA,150728.098,,,,,0,00,,,M,,M,,*70
$GPGSA,A,1,,,,,,,,,,,,,$GPGGA,150729.098,,,,,0,00,,,M,,M,,*71
$GPGSA,A,1,,,,,,,,,,,,,$GPGGA,150730.098,,,,,0,00,,,M,,M,,*79
$GPGSA,A,1,,,,,,,,,,,,,m:45,-6670
m:49,16543
m:43,15691
m:36,32631
m:42,-19735
m:56,-9110
m:37,-29873
m:37,15386
m:33,-11718
m:35,-21484
m:32,-23537
m:35,-28227
m:37,28461
m:40,24148
m:39,2549
m:45,-30848
m:34,26040
m:35,-14444
m:45,12913
m:39,-14014
m:41,-24476
m:38,1929
m:38,-31252
m:43,-24652
m:46,-14848
m:43,-31461
m:44,-25312
m:43,-32416
m:31,11874
m:33,30902
m:42,-9842
m:51,6200
$GPGGA,150731.098,,,,,0,00,,,M,,M,,*78
$GPGSA,A,1,,,,,,,,,,,,,$GPGGA,150732.098,,,,,0,00,,,M,,M,,*7B
$GPGSA,A,1,,,,,,,,,,,,,$GPGGA,150733.098,,,,,0,00,,,M,,M,,*7A
$GPGSA,A,1,,,,,,,,,,,,,$GPGGA,150734.098,,,,,0,00,,,M,,M,,*7D
$GPGSA,A,1,,,,,,,,,,,,,m:34,-28729
m:43,-16168
m:44,22070
m:43,-23803
m:39,1397
m:34,8878
m:34,-9758
m:48,31492
m:50,22377
m:39,27350
m:42,-23946
m:39,-31826
m:42,-27560
m:40,21588
m:38,8618
m:34,32492
m:44,24342
m:42,27502
m:32,30253
m:42,-12795
m:44,7172
m:39,-18140
m:34,-14366
m:46,14468
m:44,665
m:47,32116
m:36,-32415
m:43,-17766
m:40,-32052
m:45,29484
m:35,15687
m:32,-2053
$GPGGA,150735.098,,,,,0,00,,,M,,M,,*7C
$GPGSA,A,1,,,,,,,,,,,,,$GPGGA,150736.098,,,,,0,00,,,M,,M,,*7F
$GPGSA,A,1,,,,,,,,,,,,,$GPGGA,150737.098,,,,,0,00,,,M,,M,,*7E
$GPGSA,A,1,,,,,,,,,,,,,$GPGGA,150738.098,,,,,0,00,,,M,,M,,*71
$GPGSA,A,1,,,,,,,,,,,,,,,*1E
$GPGSV,1,1,02,27,,,33,08,,,32*77
$GPRm:42,-9827
m:31,-2690
m:37,-17757
m:39,5913
m:39,-18162
m:32,-22478
m:34,31434
m:40,13058
m:39,871
m:42,21046
m:42,-18248
m:43,-21708
m:39,-6940
m:45,-31934
m:39,-27677
m:32,-20030
m:45,-32481
m:36,-10864
m:34,19676
m:39,6495
m:41,-9701
m:37,-11884
m:37,27905
m:29,-17614
m:37,-24152
m:40,-24488
m:41,-11714
m:35,-8704
m:36,-26539
m:38,11306
m:39,-6076
m:34,18760
$GPGGA,150739.098,,,,,0,00,,,M,,M,,*70
$GPGSA,A,1,,,,,,,,,,,,,$GPGGA,150740.098,,,,,0,00,,,M,,M,,*7E
$GPGSA,A,1,,,,,,,,,,,,,$GPGGA,150741.098,,,,,0,00,,,M,,M,,*7F
$GPGSA,A,1,,,,,,,,,,,,,$GPGGA,150742.097,,,,,0,00,,,M,,M,,*73
$GPGSA,A,1,,,,,,,,,,,,,,,*1E
$GPRMC,150742.097,V,,,,,0.00,0.00,040718m:34,-26572
m:48,8819
m:128,-3254
m:53,-21069
m:15,-29229
m:230,-8267
m:28,-28548
m:176,-4092
m:177,6770
m:35,-13402
m:332,-26150
m:248,9926
m:36,-19358
m:340,-11816
m:485,-10561
m:223,9020
m:273,2456
m:142,5454
m:273,-13424
m:241,-5144
m:457,20282
m:577,-22640
m:406,-29794
m:287,10344
m:453,970
m:162,-19430
m:566,10215
m:199,17426
m:453,-29126
m:274,22654
m:382,15039
m:136,-18097
$GPGGA,150743.097,,,,,0,00,,,M,,M,,*72
$GPGSA,A,1,,,,,,,,,,,,,$GPGGA,150744.097,,,,,0,00,,,M,,M,,*75
$GPGSA,A,1,,,,,,,,,,,,,1
$GPRMC,150744.097,V,,,,,0.00,0.00,040718,,,N*4A
$GPVTG,0.00,T,,M,0.$GPGGA,150745.097,,,,,0,00,,,M,,M,,*74
$GPGSA,A,1,,,,,,,,,,,,,BGPVTG,0.00,T,,M,0.00,N,0.00,K,N*32
$GPGGA,150746.097,,,,,0,00,,,M,,M,,*77
$GPGSA,A,1,,,,,,,,,,,,,m:46,2228
m:52,-11040
m:45,3712
m:47,-22446
m:34,-20500
m:36,5444
m:43,-18776
m:44,3221
m:41,-15316
m:35,-16412
m:44,-3256
m:45,-31416
m:36,-17064
m:46,-14887
m:47,-931
m:40,25906
m:37,-32266
m:37,-23780
m:36,-20518
m:41,25551
m:32,11028
m:44,1352
m:31,27420
m:33,23380
m:40,3644
m:42,-29591
m:34,-19057
m:33,29968
m:36,-12158
m:42,28018
m:44,24685
m:37,5480
$GPGGA,150747.097,,,,,0,00,,,M,,M,,*76
$GPGSA,A,1,,,,,,,,,,,,,$GPGGA,150748.097,,,,,0,00,,,M,,M,,*79
$GPGSA,A,1,,,,,,,,,,,,,$GPGGA,150749.097,,,,,0,00,,,M,,M,,*78
$GPGSA,A,1,,,,,,,,,,,,,$GPGGA,150750.097,,,,,0,00,,,M,,M,,*70
$GPGSA,A,1,,,,,,,,,,,,,m:44,-15088
m:39,31523
m:45,-30440
m:40,3430
m:40,-7252
m:39,-25110
m:37,24498
m:40,-24948
m:36,-822
m:45,13302
m:35,-7838
m:37,19582
m:36,-29524
m:40,-8091
m:38,-26666
m:43,-32168
m:44,-25740
m:42,11208
m:39,7486
m:32,23792
m:37,-29852
m:36,24041
m:38,-3294
m:37,-32246
m:39,-32104
m:37,10444
m:37,-8826
m:38,-11560
m:38,14048
m:47,22776
m:41,26020
m:32,-21440
$GPGGA,150751.097,,,,,0,00,,,M,,M,,*71
$GPGSA,A,1,,,,,,,,,,,,,$GPGGA,150752.097,,,,,0,00,,,M,,M,,*72
$GPGSA,A,1,,,,,,,,,,,,,$GPGGA,150753.097,,,,,0,00,,,M,,M,,*73
$GPGSA,A,1,,,,,,,,,,,,,$GPGGA,150754.097,,,,,0,00,,,M,,M,,*74
$GPGSA,A,1,,,,,,,,,,,,,$GPGGA,150755.09m:41,-17352
m:34,-14821
m:46,-17938
m:41,10907
m:39,-18997
m:33,-12906
m:36,-22870
m:38,-22792
m:42,-14398
m:38,11880
m:39,-14858
m:46,-22302
m:47,-22852
m:33,-18504
m:33,13928
m:46,-12320
m:32,-27926
m:36,-17790
m:47,-25384
m:40,-8634
m:38,-14442
m:36,24679
m:36,-30148
m:32,-4020
m:40,-10038
m:32,-18216
m:49,1978
m:39,6633
m:40,-16139
m:42,-14912
m:39,-26232
m:38,-4372
7,,,,,0,00,,,M,,M,,*75
$GPGSA,A,1,,,,,,,,,,,,,,,*1E
$GPRMC,15$GPGGA,150756.097,,,,,0,00,,,M,,M,,*76
$GPGSA,A,1,,,,,,,,,,,,,$GPGGA,150757.097,,,,,0,00,,,M,,M,,*77
$GPGSA,A,1,,,,,,,,,,,,,,,*1E
$GPRMC,150757.097,V,,,,,0.00,0.00,040718,,,N*48
$GPGGA,150758.097,,,,,0,00,,,M,,M,,*78
$GPGSA,A,1,,,,,,,,,,,,,C50758.097,V,,,,,0.00,0.00,040718,,,N*47
$GPVTG,0.00,T,,M,0.00,N,0.00$GPGGA,150759.097,,,,,0,00,,,M,,M,,*79
$GPGSA,A,1,,,,,,,,,,,,,m:40,12660
m:36,-17608
m:45,1219
m:35,11552
m:35,29710
m:40,29538
m:31,-16074
m:35,-12746
m:36,29147
m:31,-22702
m:36,-21728
m:40,27728
m:40,6446
m:41,27814
m:39,-21675
m:40,10442
m:54,-13274
m:37,-32392
m:43,12346
m:48,-3374
m:50,22375
m:36,-2344
m:35,-21466
m:37,23462
m:32,3379
m:34,-27031
m:45,-14199
m:36,-7848
m:41,5476
m:31,-11323
m:32,-8127
m:40,-24830
$GPGGA,150800.097,,,,,0,00,,,M,,M,,*7A
$GPGSA,A,1,,,,,,,,,,,,,$GPGGA,150801.097,,,,,0,00,,,M,,M,,*7B
$GPGSA,A,1,,,,,,,,,,,,,$GPGGA,150802.097,,,,,0,00,,,M,,M,,*78
$GPGSA,A,1,,,,,,,,,,,,,$GPGGA,150803.097,,,,,0,00,,,M,,M,,*79
$GPGSA,A,1,,,,,,,,,,,,,m:40,-31558
m:38,-17336
m:40,9651
m:43,-10748
m:41,17016
m:32,27798
m:29,24591
m:37,-32544
m:41,31469
m:34,30716
m:38,-20935
m:38,-32598
m:35,5846
m:47,-26396
m:45,982
m:37,-12584
m:49,-3431
m:33,28790
m:32,20006
m:37,12583
m:40,22870
m:36,-6058
m:28,3511
m:40,29578
m:35,4313
m:39,6564
m:39,-2866
m:36,23016
m:42,8968
m:42,-30499
m:41,3367
m:37,-2302
$GPGGA,150804.097,,,,,0,00,,,M,,M,,*7E
$GPGSA,A,1,,,,,,,,,,,,,$GPGGA,150805.097,,,,,0,00,,,M,,M,,*7F
$GPGSA,A,1,,,,,,,,,,,,,$GPGGA,150806.087,,,,,0,00,,,M,,M,,*7D
$GPGSA,A,1,,,,,,,,,,,,,00,N,0.00,K,N*32
$GPGGA,150807.308,,,,,0,00,,,M,,M,,*78
$GPGSA,A,1,,,,,,,,,,,,,m:41,14968
m:38,-12676
m:43,14931
m:45,-15346
m:44,-2878
m:43,-24172
m:40,26980
m:37,-11982
m:34,31843
m:43,-7848
m:29,-25544
m:43,30574
m:45,-7954
m:34,-27021
m:45,-10346
m:35,-16363
m:36,4064
m:33,-14460
m:32,13386
m:40,-15105
m:44,-19398
m:38,-4939
m:38,11160
m:34,17224
m:37,23601
m:43,-25036
m:36,-12818
m:37,-11668
m:42,-18276
m:40,9817
m:42,8679
m:39,30474
$GPGGA,150808.308,,,,,0,00,,,M,,M,,*77
$GPGSA,A,1,,,,,,,,,,,,,$GPGGA,150809.308,,,,,0,00,,,M,,M,,*76
$GPGSA,A,1,,,,,,,,,,,,,$GPGGA,150810.308,,,,,0,00,,,M,,M,,*7E
$GPGSA,A,1,,,,,,,,,,,,,$GPGGA,150811.308,,,,,0,00,,,M,,M,,*7F
$GPGSA,A,1,,,,,,,,,,,,,m:41,-15691
m:39,-4203
m:7,-20146
m:94,-7192
m:43,28332
m:70,-10189
m:55,7804
m:35,19932
m:36,24809
m:34,-31043
m:36,-12003
m:29,-27012
m:39,15854
m:37,-30129
m:41,29178
m:34,-18192
m:40,14646
m:32,28686
m:29,2222
m:34,-23064
m:39,-24700
m:33,11950
m:31,-10968
m:48,-26840
m:43,8214
m:41,-6435
m:53,2372
m:41,-3144
m:35,-23248
m:41,22539
m:37,32386
m:38,29146
$GPGGA,150812.103,,,,,0,00,,,M,,M,,*75
$GPGSA,A,1,,,,,,,,,,,,,$GPGGA,150813.103,,,,,0,00,,,M,,M,,*74
$GPGSA,A,1,,,,,,,,,,,,,
PRMC,150813.103,V,,,,,0.00,0.00,040718,,,N*4B
$GPVTG,0.00,T,,M,0.00$GPGGA,150814.103,,,,,0,00,,,M,,M,,*73
$GPGSA,A,1,,,,,,,,,,,,,,*32
$GPGGA,150815.103,,,,,0,00,,,M,,M,,*72
$GPGSA,A,1,,,,,,,,,,,,,m:41,-17896
m:42,15477
m:47,19210
m:49,-13380
m:36,5440
m:34,28656
m:39,24310
m:40,-960
m:37,543
m:35,5088
m:43,-27058
m:30,15900
m:43,-11904
m:36,7688
m:41,-13314
m:32,4466
m:35,4191
m:46,-25656
m:36,25085
m:46,5609
m:26,-13760
m:38,31923
m:35,-25000
m:34,-30961
m:41,-18558
m:38,-22760
m:31,17411
m:51,20268
m:36,3462
m:38,-5950
m:48,18636
m:34,24921
$GPGGA,150816.103,,,,,0,00,,,M,,M,,*71
$GPGSA,A,1,,,,,,,,,,,,,$GPGGA,150817.103,,,,,0,00,,,M,,M,,*70
$GPGSA,A,1,,,,,,,,,,,,,*
$GPGGA,150818.103,,,,,0,00,,,M,,M,,*7F
$GPGSA,A,1,,,,,,,,,,,,,$GPGGA,150819.103,,,,,0,00,,,M,,M,,*7E
$GPGSA,A,1,,,,,,,,,,,,,m:37,-8050
m:35,-22984
m:33,22550
m:41,8358
m:37,-8398
m:31,-13314
m:42,-25350
m:42,26803
m:29,12320
m:42,-17310
m:32,3592
m:34,10792
m:36,-24054
m:26,-6015
m:42,5828
m:22,-29070
m:38,8250
m:33,-19109
m:42,-1179
m:35,2149
m:40,4966
m:40,-6790
m:45,-21072
m:35,20884
m:42,2481
m:48,18152
m:35,1187
m:38,-2995
m:30,-14660
m:34,-31516
m:30,-6856
m:44,-9787
$GPGGA,150820.103,,,,,0,00,,,M,,M,,*74
$GPGSA,A,1,,,,,,,,,,,,,$GPGGA,150821.103,,,,,0,00,,,M,,M,,*75
$GPGSA,A,1,,,,,,,,,,,,,$GPGGA,150822.103,,,,,0,00,,,M,,M,,*76
$GPGSA,A,1,,,,,,,,,,,,,$GPGGA,150823.103,,,,,0,00,,,M,,M,,*77
$GPGSA,A,1,,,,,,,,,,,,,m:60,-17986
m:49,7068
m:43,24969
m:41,-20633
m:24,-14958
m:40,3528
m:48,-17564
m:40,5101
m:40,-9897
m:50,-19348
m:35,-5999
m:34,-13672
m:46,-5220
m:44,1510
m:33,28213
m:41,-19214
m:36,15108
m:45,-6019
m:39,-29046
m:36,7236
m:44,18311
m:34,-10442
m:33,18215
m:38,-10807
m:40,-23811
m:44,23716
m:34,-30350
m:43,-14718
m:32,-9149
m:40,-20359
m:35,8660
m:41,-11439
$GPGGA,150824.103,,,,,0,00,,,M,,M,,*70
$GPGSA,A,1,,,,,,,,,,,,,$GPGGA,150825.103,,,,,0,00,,,M,,M,,*71
$GPGSA,A,1,,,,,,,,,,,,,$GPGGA,150826.103,,,,,0,00,,,M,,M,,*72
$GPGSA,A,1,,,,,,,,,,,,,$GPGGA,150827.103,,,,,0,00,,,M,,M,,*73
$GPGSA,A,1,,,,,,,,,,,,,$GPGGA,150828.103,,,,,0,00,,,M,,M,,*7C
$GPGSA,A,1,,,,,,,,,,,,,,,*1E
$GPRMC,150m:47,-1230
m:34,24730
m:36,-3744
m:31,-10993
m:43,-18908
m:50,-5726
m:43,3339
m:39,-24009
m:40,20114
m:34,26148
m:41,20608
m:32,-20435
m:22,25624
m:39,-18528
m:41,18366
m:35,-7654
m:39,-10685
m:29,-22834
m:31,11956
m:38,4636
m:39,8591
m:31,31898
m:33,16820
m:44,8860
m:41,5353
m:37,-19288
m:37,902
m:42,11554
m:32,-15727
m:39,-7606
m:35,29171
m:25,-27262
828.103,V,,,,,0.00,0.00,040718,,,N*43
$GPVTG,0.00,T,,M,0.00,N,,,0,00,,,M,,M,,*7D
$GPGSA,A,1,,,,,,,,,,,,,,,*1E
$GPRMC,150829.103,V$GPGGA,150830.102,,,,,0,00,,,M,,M,,*74
$GPGSA,A,1,,,,,,,,,,,,,0,0.00,040718,,,N*4B
$GPVTG,0.00,T,,M,0.00,N,0.00,K,N*32
$GPGGA,150831.102,,,,,0,00,,,M,,M,,*75
$GPGSA,A,1,,,,,,,,,,,,,$GPGGA,150832.102,,,,,0,00,,,M,,M,,*76
$GPGSA,A,1,,,,,,,,,,,,,m:35,6008
m:41,-28944
m:38,-20934
m:31,-27073
m:39,8050
m:35,24872
m:42,-12302
m:38,-15609
m:37,12855
m:45,-29730
m:36,4190
m:38,-10232
m:37,-29410
m:47,-18904
m:39,-6798
m:29,737
m:26,22378
m:31,-32179
m:26,-3357
m:77,-27802
m:85,-22150
m:131,-29248
m:126,-27191
m:138,24460
m:170,31154
m:137,-11646
m:114,550
m:41,26674
m:40,28485
m:43,-16955
m:47,-12784
m:51,20150
$GPGGA,150833.102,,,,,0,00,,,M,,M,,*77
$GPGSA,A,1,,,,,,,,,,,,,$GPGGA,150834.102,,,,,0,00,,,M,,M,,*70
$GPGSA,A,1,,,,,,,,,,,,,$GPGGA,150835.102,,,,,0,00,,,M,,M,,*71
$GPGSA,A,1,,,,,,,,,,,,,$GPGGA,150836.102,,,,,0,00,,,M,,M,,*72
$GPGSA,A,1,,,,,,,,,,,,,m:40,-15184
m:40,10868
m:34,-9004
m:39,756
m:31,31111
m:29,24231
m:40,-9297
m:46,-8528
m:31,-13824
m:36,19881
m:39,5422
m:35,-27765
m:46,-12810
m:42,-21806
m:38,-26482
m:29,-15410
m:35,6326
m:36,4775
m:37,-1064
m:39,25141
m:37,-13374
m:38,26714
m:33,10163
m:49,-15990
m:36,-6622
m:46,-31674
m:41,24705
m:38,-15252
m:34,-24921
m:27,-6424
m:50,-2486
m:37,-1654
$GPGGA,150837.102,,,,,0,00,,,M,,M,,*73
$GPGSA,A,1,,,,,,,,,,,,,$GPGGA,150838.102,,,,,0,00,,,M,,M,,*7C
$GPGSA,A,1,,,,,,,,,,,,,$GPGGA,150839.102,,,,,0,00,,,M,,M,,*7D
$GPGSA,A,1,,,,,,,,,,,,,$GPGGA,150840.102,,,,,0,00,,,M,,M,,*73
$GPGSA,A,1,,,,,,,,,,,,,m:37,-8735
m:43,4099
m:34,-27658
m:31,23876
m:34,14484
m:32,-17009
m:37,5510
m:36,24
m:46,-19209
m:36,-20502
m:37,-10436
m:31,-20328
m:32,-22995
m:33,-31260
m:35,6116
m:34,1465
m:36,-27523
m:35,-29986
m:28,25880
m:30,28508
m:33,-5081
m:46,-21501
m:38,23102
m:41,20384
m:34,-27466
m:42,9244
m:45,-9839
m:38,-9715
m:32,-14382
m:32,-8468
m:37,-28462
m:41,851
$GPGGA,150841.102,,,,,0,00,,,M,,M,,*72
$GPGSA,A,1,,,,,,,,,,,,,$GPGGA,150842.093,,,,,0,00,,,M,,M,,*78
$GPGSA,A,1,,,,,,,,,,,,,$GPGGA,150843.093,,,,,0,00,,,M,,M,,*79
$GPGSA,A,1,,,,,,,,,,,,,$GPGGA,150844.093,,,,,0,00,,,M,,M,,*7E
$GPGSA,A,1,,,,,,,,,,,,,,,*1E
$GPRMC,150844.093,V,,,,,0.00,0.00,040718,,,N*41
$GPm:43,31809
m:41,24144
m:37,6898
m:35,-655
m:36,1662
m:36,-13368
m:41,-29058
m:32,-11044
m:33,-5544
m:34,28574
m:43,-9240
m:32,4796
m:36,-3376
m:35,28708
m:34,-17095
m:32,-11858
m:36,-2451
m:47,14980
m:47,-5308
m:39,-25173
m:36,-16132
m:27,-17728
m:45,-27239
m:36,31852
m:32,18181
m:39,32188
m:41,-22376
m:31,6402
m:36,28511
m:37,-21619
m:39,13104
m:40,-14778
$GPGGA,150845.093,,,,,0,00,,,M,,M,,*7F
$GPGSA,A,1,,,,,,,,,,,,,$GPGGA,150846.093,,,,,0,00,,,M,,M,,*7C
$GPGSA,A,1,,,,,,,,,,,,,,,*1E
$GPRMC,150846.093,V,,,,,0$GPGGA,150847.093,,,,,0,00,,,M,,M,,*7D
$GPGSA,A,1,,,,,,,,,,,,,73,V,,,,,0.00,0.00,040718,,,N*42
$GPVTG,0.00,T,,M,0.00,N,0.00,K,N*32$GPGGA,150848.093,,,,,0,00,,,M,,M,,*72
$GPGSA,A,1,,,,,,,,,,,,,,,,,,,,,,,,,,,*1E
$GPRMC,150848.303,V,,,,,0.00,0.00,040718,,,N*47
$Gm:35,-1986
m:39,23533
m:34,15053
m:40,24516
m:36,-17278
m:43,20504
m:34,32344
m:38,27482
m:34,-7619
m:37,-19608
m:31,-15821
m:33,-3480
m:31,14879
m:33,-31856
m:40,-13195
m:45,14780
m:51,-9439
m:52,19568
m:36,-17767
m:37,-6318
m:46,29723
m:33,-11042
m:26,24774
m:15,-7158
m:158,-26536
m:557,19567
m:171,18766
m:424,-26683
m:343,29333
m:296,-7639
m:402,17914
m:439,-27078
$GPGGA,150849.303,,,,,0,00,,,M,,M,,*79
$GPGSA,A,1,,,,,,,,,,,,,$GPGGA,150850.303,,,,,0,00,,,M,,M,,*71
$GPGSA,A,1,,,,,,,,,,,,,.040718,,,N*4E
$GPVTG,0.00,T,,M,0.00,N,0.00,K,N*32
$GPGGA,150851.303,,,,,0,00,,,M,,M,,*70
$GPGSA,A,1,,,,,,,,,,,,,GG,0.00,T,,M,0.00,N,0.00,K,N*32
$GPGGA,150852.303,,,,,0,00,,,M,,M,,*73
$GPGSA,A,1,,,,,,,,,,,,,m:334,-14016
m:374,30102
m:500,-4200
m:469,-1435
m:415,-28892
m:302,-12279
m:452,30046
m:617,-18438
m:328,32675
m:374,-22397
m:474,-1886
m:386,3393
m:464,-13346
m:361,-12806
m:394,334
m:498,-16341
m:365,-15925
m:317,31874
m:327,28498
m:411,29469
m:418,9020
m:427,11156
m:502,-22094
m:500,21636
m:491,3072
m:472,17480
m:341,-26564
m:487,27352
m:383,-24884
m:336,-21164
m:280,-6792
m:335,-18944
$GPGGA,150853.303,,,,,0,00,,,M,,M,,*72
$GPGSA,A,1,,,,,,,,,,,,,$GPGGA,150854.103,,,,,0,00,,,M,,M,,*77
$GPGSA,A,1,,,,,,,,,,,,,$GPGGA,150855.103,,,,,0,00,,,M,,M,,*76
$GPGSA,A,1,,,,,,,,,,,,,,,*1E
$GPRMC,150855.103,V,,,,,0.00,0.00,040718,,,N*$GPGGA,150856.103,,,,,0,00,,,M,,M,,*75
$GPGSA,A,1,,,,,,,,,,,,,825*76
$GPRMC,150856.103,V,,,,,0.00,0.00,040718,,,N*4A
$GPVTG,0.00,Tm:303,-20066
m:234,-2806
m:356,4954
m:249,-28124
m:287,31046
m:353,15092
m:382,-8654
m:328,-5199
m:385,14558
m:352,-23688
m:386,-1740
m:321,15992
m:362,2609
m:311,9667
m:329,-21020
m:282,6380
m:268,-30023
m:337,13164
m:324,-32542
m:285,29438
m:302,-19245
m:286,-3715
m:330,-30723
m:241,-23460
m:233,-32392
m:224,5094
m:196,724
m:258,21358
m:130,-9642
m:185,32332
m:246,-18506
m:201,708
$GPGGA,150857.103,,,,,0,00,,,M,,M,,*74
$GPGSA,A,1,,,,,,,,,,,,,$GPGGA,150858.103,,,,,0,00,,,M,,M,,*7B
$GPGSA,A,1,,,,,,,,,,,,,$GPGGA,150859.103,,,,,0,00,,,M,,M,,*7A
$GPGSA,A,1,,,,,,,,,,,,,$GPGGA,150900.082,,,,,0,03,,,M,,M,,*7C
$GPGSA,A,1,,,,,,,,,,,,,,,*1E
$GPGSV,2,1,08,27,72,121,29,08,67,294,28,10,57,093,38,07,10,280,m:231,30762
m:212,-10850
m:193,27280
m:143,25028
m:266,16562
m:94,-16978
m:156,31466
m:111,-32068
m:157,-827
m:74,32111
m:124,29242
m:159,-24552
m:215,19086
m:176,-21664
m:174,4707
m:195,10441
m:160,730
m:122,-18813
m:174,-19375
m:167,-28135
m:134,-8702
m:100,-28582
m:136,27332
m:151,21000
m:122,12366
m:103,14417
m:119,-2748
m:111,30038
m:86,1088
m:81,3996
m:107,-15529
m:102,21815
$GPGGA,150902.000,,,,,0,03,,,M,,M,,*74
$GPGSA,A,1,,,,,,,,,,,,,,,*1E
$GPRMC,150902.000$GPGGA,150903.000,5132.5005,N,00000.7187,W,1,03,6.98,103.0,M,47,0*0B
$GPRMC,150903.000,A,5132.5005,N,00000.7187,W,5.08,287.77,040718$GPGGA,150904.000,5132.5005,N,00000.7206,W,1,03,6.97,103.0,M,4772,T,,M,4.99,N,9.26,K,A*3C
$GPGGA,150905.000,5132.5001,N,00000.7232,W,1,03,6.97,103.0,M,47m:259,29744
m:368,-29896
m:411,-24714
m:409,18543
m:373,-24494
m:307,21494
m:294,-16889
m:322,-29852
m:322,-594
m:337,21738
m:300,-11421
m:429,21388
m:357,-30941
m:438,6540
m:456,15568
m:495,29755
m:440,4622
m:449,-30796
m:412,-25293
m:362,-26290
m:364,-22504
m:349,-20405
m:423,9648
m:367,-21144
m:407,19763
m:415,-15056
m:524,16666
m:396,-29454
m:393,-8122
m:371,16242
m:394,-29537
m:408,923
$GPGGA,150906.000,5132.4999,N,00000.7261,W,1,03,6.96,103.0,M,473,,,26*40
$GPRMC,150906.000,A,5132.4999,N,00000.7261,W,5.23,286.24,040718,$GPGGA,150908.000,5132.5011,N,00000.7312,W,1,03,6.95,103.0,M,47$GPGGA,150909.000,5132.5024,N,00000.7340,W,1,03,6.95,103.1,M,47m:415,-11811
m:473,-31554
m:356,20729
m:346,-18389
m:329,26830
m:457,6978
m:379,9534
m:381,-264
m:388,-24674
m:367,31308
m:379,26942
m:379,9722
m:399,16353
m:406,30587
m:438,-28779
m:440,23893
m:559,14480
m:445,-25682
m:469,-6582
m:426,1216
m:478,11253
m:386,20472
m:425,-10746
m:420,-9698
m:418,22592
m:333,-25804
m:388,-20206
m:516,-9781
m:410,8280
m:373,-12774
m:475,-8349
m:503,-30452
$GPGGA,150910.000,5132.5036,N,00000.7366,W,1,03,6.94,103.1,M,47$GPGGA,150911.000,5132.5050,N,00000.7392,W,1,03,6.94,103.1,M,47,B
$GPGGA,150912.000,5132.5066,N,00000.7414,W,1,03,6.93,103.1,M,47.,T,,M,6.04,N,11.19,K,A*0D
m:399,-13122
m:374,-23907
m:444,-20447
m:402,-25036
m:406,28758
m:454,-23337
m:540,-7724
m:447,-20169
m:525,27882
m:457,21816
m:480,547
m:406,16921
m:486,-9282
m:527,-16918
m:466,-24703
m:404,29812
m:448,20392
m:498,9978
m:437,21006
m:561,-30362
m:608,4416
m:573,32046
m:533,-26525
m:518,12177
m:575,-17647
m:465,7056
m:569,1522
m:628,-16244
m:482,-4734
m:586,-8517
m:498,26266
m:495,-30070
$GPGGA,150914.000,5132.5100,N,00000.7460,W,1,03,6.92,103.1,M,47$GPGGA,150915.000,5132.5115,N,00000.7484,W,1,03,6.91,103.1,M,47$GPGGA,150916.000,5132.5129,N,00000.7507,W,1,03,6.90,103.1,M,47.0,M,,*77
$GPGSA,A,2,08,27,10,,,,,,,,,,6.98,6.90,1.00*06
$GPGS$GPGGA,150917.000,5132.5142,N,00000.7533,W,1,03,6.90,103.1,M,470,5132.5142,N,00000.7533,W,6.24,295.84,040718,,,A*7A
$GPVTG,295.84,Tm:584,-32592
m:506,13396
m:722,15634
m:565,-25370
m:496,16787
m:546,-28626
m:545,7613
m:499,-5205
m:500,-26812
m:680,-19612
m:548,-16263
m:449,31880
m:549,-12376
m:551,16274
m:495,-7308
m:476,-3464
m:518,20904
m:552,-1748
m:579,-26973
m:533,31940
m:457,4771
m:484,26637
m:524,-27780
m:520,5324
m:537,-29870
m:515,4788
m:542,26398
m:465,-3004
m:424,1240
m:456,-25648
m:400,-20843
m:438,-27897
$GPGGA,150918.000,5132.5160,N,00000.7560,W,1,03,6.90,103.1,M,47$GPGGA,150920.000,5132.5197,N,00000.7612,W,1,03,6.88,103.1,M,47$GPGGA,150921.000,5132.5213,N,00000.7636,W,1,03,6.88,103.1,M,47.0,M,,*71
$GPGSm:400,-8244
m:488,-3433
m:442,-26688
m:463,6482
m:584,12453
m:464,14733
m:488,10716
m:537,17655
m:391,2632
m:371,21774
m:376,15508
m:368,-20500
m:383,-16675
m:305,-27614
m:449,28185
m:278,31253
m:321,28203
m:443,-5039
m:354,-13218
m:365,-3655
m:243,5186
m:312,-22797
m:334,4570
m:277,22111
m:364,-531
m:308,2338
m:294,-23196
m:364,18930
m:257,-13034
m:248,8702
m:404,12490
m:229,-15278
$GPGGA,150922.000,5132.5224,N,00000.7662,W,1,03,6.87,103.1,M,47$GPGGA,150923.000,5132.5237,N,00000.7687,W,1,03,6.87,103.1,M,47,,,,,,,,,,6.94,6.87,1.00*0C
$GPRMC,150923.000,A,5132.5237,N,00000.76$GPGGA,150924.000,5132.5250,N,00000.7707,W,1,03,6.86,103.1,M,4730718,,,A*7F
$GPVTG,304.43,T,,M,6.73,N,12.47,K,A*0F
$GPGGA,150924.2m:194,-22164
m:305,18494
m:114,22038
m:93,-17152
m:257,-29745
m:107,5641
m:90,-13547
m:186,-32618
m:87,-20669
m:70,8280
m:93,-28632
m:58,18586
m:124,-30779
m:37,26438
m:41,8287
m:139,29606
m:38,6950
m:37,-8022
m:119,-4672
m:32,-8376
m:87,-8352
m:29,-9694
m:29,24252
m:99,-17331
m:30,26235
m:91,22186
m:38,29798
m:33,-25794
m:78,10914
m:37,-32163
m:93,6470
m:35,26644
$GPGGA,150926.000,5132.5274,N,00000.7737,W,1,03,6.85,103.1,M,47$GPGGA,150927.000,5132.5271,N,00000.7731,W,1,03,6.84,103.1,M,474$GPGGA,150928.000,5132.5259,N,00000.7707,W,1,03,6.84,103.1,M,47$GPGGA,150929.000,5132.5249,N,00000.7686,W,1,03,6.83,103.1,M,47m:81,-3923
m:40,1554
m:34,14430
m:86,-3211
m:31,5772
m:83,-27473
m:38,14535
m:33,-14858
m:67,24078
m:43,10747
m:80,25518
m:32,17300
m:41,-17811
m:47,-11812
m:34,-13918
m:127,16493
m:42,22665
m:152,-21917
m:35,-24480
m:46,7742
m:87,30714
m:38,6990
m:205,-15728
m:61,1541
m:140,-22244
m:59,-17910
m:54,23094
m:42,24224
m:100,4500
m:190,621
m:126,-1972
m:144,11753
$GPGGA,150930.000,5132.5258,N,00000.7630,W,1,03,6.83,103.0,M,47$GPGGA,150932.000,5132.5249,N,00000.7563,W,1,03,6.82,103.0,M,47$GPGGA,150933.000,5132.5235,N,00000.7526,W,1,03,6.81,103.0,M,47m:125,22125
m:132,19854
m:159,14946
m:136,16180
m:229,13793
m:132,-28977
m:124,10986
m:100,-19403
m:122,31944
m:147,18974
m:276,25250
m:491,14525
m:362,3071
m:338,29504
m:293,8470
m:301,-9799
m:265,15321
m:293,-31100
m:416,-10108
m:275,6830
m:260,-20928
m:254,16974
m:246,2396
m:220,5702
m:260,-12821
m:278,-15144
m:268,-30850
m:237,-28485
m:256,-12060
m:244,21535
m:211,-13480
m:251,-18130
$GPGGA,150934.000,5132.5219,N,00000.7489,W,1,03,6.81,103.0,M,47$GPGGA,150935.000,5132.5208,N,00000.7453,W,1,03,6.80,103.0,M,47$GPGGA,150936.000,5132.5197,N,00000.7412,W,1,03,6.79,103.0,M,4725132.5198,N,00000.7399,W,1,03,6.79,103.0,M,47.0,M,,*7B
$GPGSA,A,2,08$GPGGA,150938.000,5132.5184,N,00000.733m:274,-10528
m:292,-9455
m:364,28524
m:247,-20592
m:240,-19020
m:234,6098
m:260,27152
m:235,-25054
m:260,-9084
m:420,17422
m:344,20299
m:385,-9580
m:347,28330
m:345,19584
m:323,7472
m:337,27096
m:281,-2092
m:335,-17943
m:472,-10204
m:318,2202
m:367,17372
m:294,4814
m:307,-14874
m:297,-27209
m:287,-18223
m:282,13767
m:310,-26157
m:253,-31269
m:309,-15354
m:450,-5025
m:289,-20202
m:257,11428
5,W,1,03,6.78,103.0,M,47.0,M,,*7C
$GPGSA,A,2,08,27,10,,,,,,,,,$GA,150939.000,5132.5174,N,00000.7289,W,1,03,6.78,103.0,M,47.0,M,,*74$GPGGA,150940.000,5132.5164,N,00000.7247,W,1,03,6.77,103.0,M,47A08,27,10,,,,,,,,,,6.85,6.77,1.00*03
$GPRMC,150940.000,A,5132.5164,N,$GPGGA,150941.000,5132.5152,N,00000.7203,W,1,03,6.77,103.0,M,477,280,*78
$GPGSV,3,2,12,28,05,328,23,32,05,124,15,11,,,36,20,,,23*7D$GPGGA,150942.000,5132.5142,N,00000.7155,W,1,03,6.76,103.0,M,471,17.0m:288,7194
m:280,-3824
m:267,10198
m:264,-12096
m:247,24584
m:243,20644
m:240,-19188
m:258,-24956
m:218,-28869
m:241,29670
m:352,11074
m:222,-31527
m:376,-20830
m:215,-30292
m:239,31922
m:191,18742
m:175,3291
m:179,-2085
m:171,17009
m:171,7137
m:185,-26786
m:144,-4073
m:152,3725
m:130,-9930
m:157,-8374
m:114,28628
m:158,2345
m:178,-14859
m:162,3935
m:324,15746
m:153,-10784
m:316,3284
3,K,A*04
$GPGGA,150942.210,5132.5142,N,00000.7141,W,1,03,6.76,$GPGGA,150944.000,5132.5127,N,00000.7066,W,1,03,6.75,103.0,M,47$GPGGA,150945.000,5132.5116,N,00000.7022,W,1,03,6.74,103.0,M,47$GPGGA,150946.000,5132.5108,N,00000.6977,W,1,03,6.74,103.0,M,47018,,,Am:172,14665
m:253,-16266
m:151,15347
m:134,23195
m:174,32112
m:139,944
m:145,-26469
m:157,14928
m:132,-21896
m:133,-446
m:120,-7699
m:159,29278
m:108,-4138
m:146,-2448
m:109,11513
m:133,12978
m:175,8890
m:140,-13897
m:100,-9007
m:141,-13784
m:216,-7998
m:143,29287
m:291,-6046
m:136,17580
m:174,-16140
m:134,-25593
m:117,23232
m:131,25074
m:122,-20304
m:128,-1342
m:123,-3852
m:133,-30132
*75
$GPVTG,109.18,T,,M,9.64,N,17.87,K,A*0E
$GPGGA,150947.000,$GPGGA,150948.000,5132.5088,N,00000.6880,W,6,02,99.99,103.0,M,48,00000.6871,W,10.07,109.21,040718,,,A*4D
$GPVTG,109.21,T,,M,10.07,Nm:124,16304
m:79,-20660
m:117,-21287
m:101,11848
m:127,-14072
m:80,-13796
m:110,12674
m:89,-16519
m:104,-16958
m:74,-16400
m:113,25348
m:85,27379
m:95,-16975
m:143,20627
m:106,29342
m:189,10034
m:101,32482
m:264,-15820
m:512,1238
m:100,18682
m:2196,2195
m:1712,1311
m:1712,1311
m:1712,1311
m:1712,1311
m:2196,2195
m:1114,27983
m:1064,-30232
m:945,-8940
m:2196,2195
m:2196,2195
m:1052,-656
$GPGGA,150950.000,5132.5065,N,00000.6793,W,1,03,6.72,103.0,M,47$GPGGA,150951.000,5132.5053,N,00000.6747,W,1,03,6.71,103.0,M,47,.31,109.76,040718,,,A*41
$GPVTG,109.76,T,,M,10.31,N,19.10,K,A*3E
$GPGGA,150952.000,5132.5041,N,00000.6703,W,1,03,6.71,103.0,M,47$GPGGA,150953.000,5132.5029,N,00000.6653,W,1,03,6.70,103.0,M,472,27,10,,,,,,,,,,6.78,6.70,1.00*06
$GPRMC,150953.000,A,5132.5029,N,00m:962,20594
m:1012,-7652
m:1030,-21401
m:1029,-21128
m:1055,32681
m:940,1083
m:1099,-21253
m:963,-11753
m:908,-9404
m:910,29552
m:971,-17508
m:895,5910
m:838,13524
m:875,-32026
m:853,-29613
m:774,25108
m:852,29355
m:863,6544
m:763,23559
m:861,-5049
m:733,16340
m:874,12799
m:774,-14074
m:773,-15991
m:725,13603
m:779,-15898
m:724,2570
m:870,-20185
m:740,-7642
m:835,20010
m:835,-5488
m:786,-5668
$GPGGA,150954.000,5132.5014,N,00000.6599,W,1,03,6.70,103.0,M,47$GPGGA,150956.000,5132.4579,N,00000.6832,W,1,04,5.66,97.3,M,47.P,150956.000,A,5132.4579,N,00000.6832,W,11.83,128.60,040718,,,A*4B
$G$GPGGA,150957.000,5132.4496,N,00000.6838,W,1,04,4.99,96.3,M,47.m:711,20514
m:787,-19220
m:774,14783
m:747,-28717
m:756,-10703
m:787,10011
m:735,-29902
m:811,-18930
m:784,-9076
m:838,-2716
m:783,6713
m:745,-31060
m:784,18229
m:727,-16747
m:775,23982
m:721,-9314
m:708,11512
m:749,29736
m:737,28124
m:786,-8252
m:766,13056
m:719,-20421
m:750,-28944
m:738,-2621
m:753,-29365
m:756,30908
m:749,3175
m:761,-17601
m:731,4430
m:747,-20548
m:750,27859
m:719,27820
$GPGGA,150958.000,5132.4457,N,00000.6811,W,1,03,5.49,96.1,M,47.$GPGGA,150959.000,5132.4428,N,00000.6774,W,1,03,5.49,96.0,M,47.$GPGGA,151000.000,5132.4401,N,00000.6737,W,1,03,5.48,96.0,M,47.$GPGGA,151001.000,5132.4474,N,00000.6683,W,1,04,2.60,94.5,M,47.0,M,,*4C
$GPGSA,A,3,08,27,11,3$GPGGA,151002.000,5132.4515,N,00000.6634,W,1,04,2.60,93.7,M,47.1.000,m:760,20980
m:748,-14276
m:726,-31675
m:773,13381
m:729,9408
m:748,-4894
m:663,28612
m:699,-3659
m:766,-30174
m:790,-5292
m:761,-29056
m:784,-12056
m:760,-23908
m:769,13238
m:795,-27487
m:735,-31815
m:783,20737
m:777,19524
m:737,25598
m:781,24072
m:783,19734
m:914,-13581
m:958,25903
m:895,5554
m:980,-6906
m:936,11446
m:903,24148
m:957,16407
m:890,16355
m:965,-13994
m:943,9566
m:886,28345
A,5132.4515,N,00000.6634,W,11.28,124.44,040718,,,A*4B
$GPVTG,1.,,*4E
$GPGSA,A,3,08,27,11,30,,,,,,,,,2.77,2.60,0.95*06
$GPRMC,1510$GPGGA,151004.000,5132.4519,N,00000.6524,W,1,05,2.36,92.8,M,47.N000.6524,W,11.62,121.95,040718,,,A*44
$GPVTG,121.95,T,,M,11.62,N,21$GPGGA,151005.000,,,,,0,05,,,M,,M,,*7D
$GPGSA,A,1,,,,,,,,,,,,,m:991,6881
m:922,2060
m:910,-23684
m:908,1687
m:886,-16480
m:885,12964
m:841,1800
m:856,23539
m:852,-31263
m:856,-12386
m:857,3432
m:850,-32172
m:813,-20230
m:888,26840
m:822,380
m:860,29307
m:836,-7332
m:846,-26682
m:868,19790
m:848,-20960
m:821,19805
m:895,-20228
m:816,31541
m:863,7479
m:871,21036
m:814,-15622
m:871,-14355
m:862,14354
m:834,2496
m:858,18847
m:839,-25164
m:835,11588
$GPGGA,151006.000,5132.4135,N,00000.6543,W,1,05,2.75,91.8,M,47.$GPGGA,151007.000,5132.4071,N,00000.6484,W,1,05,2.36,91.4,M,47.6$GPGGA,151008.000,5132.4031,N,00000.6416,W,1,05,2.36,91.1,M,47.$GPGGA,151009.000,5132.3974,N,00000.6349,W,1,05,2.36,90.6,M,47.m:843,-22034
m:872,29695
m:873,-6924
m:856,23402
m:867,2090
m:874,21593
m:855,-11211
m:865,5571
m:858,-9281
m:838,-6484
m:868,-3364
m:872,22850
m:911,23777
m:840,-9245
m:831,8152
m:889,-12206
m:849,-7417
m:856,-17133
m:844,-1723
m:880,-16690
m:886,7014
m:869,-2316
m:901,12164
m:899,-19816
m:890,-19082
m:918,-18522
m:891,-29202
m:930,-13085
m:923,-13332
m:896,8614
m:937,-6943
m:905,-29976
$GPGGA,151010.000,5132.3946,N,00000.6277,W,1,05,2.36,90.3,M,47.$GPGGA,151011.000,5132.4055,N,00000.6210,W,1,05,2.37,89.1,M,47.0.6210,W,13.73,108.02,040718,,,A*4A
$GPVTG,108.02,T,,M,13.73,N,25.44,$GPGGA,151012.000,5132.4120,N,00000.6145,W,1,05,2.37,88.1,M,47.$GPGGA,151013.000,5132.4143,N,00000.6081,W,1,05,2.37,87.1,M,47.0,M,,*4F
$GPGSA,A,3$GPGGA,151014.000,5132.4154,N,00000.6018,W,1,05,2.37,86.1,M,47.,55,2.m:938,-9536
m:913,11112
m:891,25422
m:902,5842
m:861,18620
m:941,8965
m:948,-9618
m:942,12276
m:915,20775
m:857,-21783
m:927,-4150
m:939,-5718
m:896,-27782
m:767,12605
m:946,-6816
m:950,-26131
m:905,12960
m:953,-23158
m:898,26018
m:953,-15212
m:815,-9707
m:943,-14999
m:894,-10666
m:972,18040
m:868,-9228
m:977,-16075
m:871,-24412
m:966,-4073
m:917,5390
m:873,-28354
m:979,14380
m:889,-25084
37,0.94*04
$GPRMC,151014.000,A,5132.4154,N,00000.6018,W,13.64,0.37,85.3,M,47.0,M,,*4B
$GPGSA,A,3,08,27,11,10,30,,,,,,,,2.55,2.37,0$GPGGA,151016.000,5132.4155,N,00000.5896,W,1,05,2.37,84.4,M,47.122,08,68,294,32,10,57,093,25,39,26,149,*7E
$GPGSV,3,2,12,11,24,270,36,30,$GPGGA,151017.000,5132.4152,N,00000.5839,W,1,05,2.37,83.7,M,47.
$GPGGA,151018.000,5132.4149,N,00000.5783,W,1,05,2.37,82.9,M,47.m:893,-17966
m:943,19038
m:948,26626
m:872,-8806
m:902,27458
m:969,27395
m:934,10224
m:900,-28706
m:878,6280
m:981,-21237
m:951,30848
m:914,6422
m:877,7061
m:877,7258
m:988,8403
m:944,-8288
m:942,11894
m:864,28896
m:867,-22500
m:927,21940
m:904,-2338
m:916,-24726
m:939,-19282
m:987,22426
m:944,-21094
m:946,29392
m:921,-17560
m:876,-19030
m:792,3087
m:852,31938
m:900,-3628
m:884,25810
$GPGGA,151019.000,5132.4149,N,00000.5726,W,1,06,2.55,82.1,M,47..N,25.60,K,A*32
$GPGGA,151020.000,5132.4145,N,00000.5666,W,1,06,2.55,81.4,M,47.$GPGGA,151021.000,5132.4140,N,00000.5609,W,1,06,2.55,80.7,M,47.7,,,A*45
$GPVTG,111.64,T,,M,13.39,N,24.81,K,A*39
$GPGGA,151022.000,5132.4132,N,00000.5551,W,1,06,2.26,80.0,M,47.m:904,9316
m:884,23526
m:888,31367
m:883,-6699
m:851,32741
m:889,14269
m:878,-26215
m:934,10819
m:947,21820
m:962,-8506
m:918,21205
m:848,10544
m:876,21742
m:905,-29876
m:996,-14566
m:937,-29206
m:895,-28427
m:866,8763
m:847,31808
m:892,-22387
m:924,-1034
m:994,28704
m:902,-22929
m:861,12764
m:840,-29382
m:871,-13604
m:837,205
m:906,-30328
m:932,4248
m:837,2407
m:856,-2570
m:863,-22200
$GPGGA,151023.000,5132.4125,N,00000.5495,W,1,06,2.55,79.4,M,47.$GPGGA,151024.000,5132.4112,N,00000.5446,W,1,06,2.55,78.7,M,47.$GPGGA,151025.000,5132.4104,N,00000.5398,W,1,07,2.18,78.0,M,47.0,M,,*4F
$GPGSA,A,3,08,27,07,11,18$GPGGA,151026.000,5132.4105,N,00000.5348,W,1,07,2.18,77.0,M,47.PV,3,1,11,27,71,122,28,08,68,294,30,10,57,093,21,18,37,253,31*78
$GPGm:874,-25465
m:929,-15329
m:881,-6671
m:735,14926
m:884,6980
m:943,-6482
m:887,-24247
m:907,-7682
m:898,25882
m:898,8773
m:720,-27740
m:889,-9956
m:889,964
m:842,-20485
m:832,2108
m:833,21832
m:894,-2405
m:713,-9846
m:817,-10956
m:874,11348
m:874,28712
m:847,-17068
m:654,22943
m:804,-29110
m:707,4776
m:862,16864
m:846,-14433
m:804,-28632
m:825,11474
m:692,-12004
m:831,22824
m:656,22432
$GPGGA,151027.000,5132.4086,N,00000.5310,W,1,07,2.18,76.2,M,47.$GPGGA,151028.000,5132.4056,N,00000.5277,W,1,07,1.81,75.8,M,47.W.36,146.18,040718,,,A*40
$GPVTG,146.18,T,,M,12.36,N,22.91,K,A*39
$GPGGA,151029.000,5132.4015,N,00000.5273,W,1,07,2.18,74.8,M,47.$GPGGA,151030.000,5132.3992,N,00000.5275,W,1,07,1.81,74.0,M,47.m:812,-22236
m:896,11396
m:804,-5591
m:859,-116
m:817,-10566
m:795,23898
m:704,21591
m:823,12350
m:873,790
m:661,138
m:866,-29232
m:646,-2921
m:795,639
m:714,-1746
m:815,5722
m:811,-31426
m:690,-15217
m:792,-6537
m:706,-31825
m:862,14838
m:716,-13385
m:825,42
m:881,-624
m:769,23452
m:791,-23759
m:715,32364
m:798,24171
m:834,4278
m:884,-12131
m:815,-3204
m:651,18891
m:822,-5156
$GPGGA,151031.000,5132.3970,N,00000.5284,W,1,07,1.81,73.2,M,47.$GPGGA,151032.000,5132.3952,N,00000.5294,W,1,07,1.81,72.3,M,47.$GPGGA,151033.000,5132.3936,N,00000.5304,W,1,07,1.81,71.5,M,47.$GPGGA,151034.000,5132.3919,N,00000.5318,W,1,07,1.81,70.8,M,47.m:881,12894
m:873,19875
m:872,-24585
m:885,-9310
m:871,-4392
m:772,-7768
m:769,-21075
m:700,-27626
m:866,-11772
m:807,-14435
m:837,23366
m:803,29725
m:857,-30607
m:758,-3306
m:817,16259
m:820,-24937
m:580,-12009
m:726,-6672
m:815,-18846
m:769,1110
m:822,7874
m:753,14167
m:777,-4882
m:764,5465
m:808,-6102
m:834,-23588
m:822,22745
m:748,20138
m:755,13016
m:859,-2167
m:811,18142
m:677,-29699
$GPGGA,151035.000,5132.3892,N,00000.5333,W,1,07,2.18,70.1,M,47.$GPGGA,151036.000,5132.3868,N,00000.5347,W,1,07,1.81,69.7,M,47.194,K,A*00
$GPGGA,151037.000,5132.3845,N,00000.5357,W,1,07,1.81,69.1,M,47.$GPGGA,151038.000,5132.3823,N,00000.5365,W,1,07,1.81,68.5,M,47.A3,08,27,07,11,18,10,30,,,,,,2.03,1.81,0.92*01
$GPRMC,151038.000,A,5$GPGGA,151039.000,5132.3800,N,00000.5376,W,1,07,1.81,68.2,M,47.N0000.5m:778,-20238
m:608,-29312
m:701,-31758
m:777,14972
m:720,5823
m:674,20208
m:688,-24838
m:736,-1168
m:772,30173
m:755,-215
m:713,239
m:784,-25880
m:740,5011
m:761,-6110
m:711,-8568
m:738,-1468
m:741,1452
m:763,-11450
m:722,22961
m:644,7411
m:770,-10908
m:539,-19884
m:756,31514
m:547,1190
m:722,4336
m:688,-31110
m:765,-23470
m:753,-28410
m:729,21578
m:746,-6542
m:781,26374
m:782,31366
376,W,8.84,200.70,040718,,,A*71
$GPVTG,200.70,T,,M,8.84,N,16.3,30,,,,,,2.04,1.81,0.92*06
$GPRMC,151040.000,A,5132.3775,N,00000.538$GPGGA,151041.000,5132.3750,N,00000.5397,W,1,07,1.81,67.2,M,47.,,24,270,19,30,11,307,12,07,10,279,24,28,06,328,15*7A
$GPGSV,3,3,11,44,06,10$GPGGA,151042.000,5132.3742,N,00000.5397,W,1,07,1.81,66.9,M,47.m:794,-1414
m:775,1763
m:790,-10984
m:739,15787
m:763,-12962
m:704,18864
m:525,31378
m:714,-30366
m:588,-4166
m:754,9576
m:774,-32631
m:725,-2019
m:750,32458
m:774,-22491
m:739,23370
m:756,29580
m:744,-5991
m:625,-900
m:724,757
m:535,5093
m:727,-16136
m:748,-8077
m:732,3750
m:710,14362
m:765,-32711
m:701,2632
m:765,26974
m:685,-18411
m:507,24969
m:708,28399
m:732,-13366
m:715,-7880
$GPGGA,151043.000,5132.3738,N,00000.5396,W,1,07,1.82,66.5,M,47.$GPGGA,151044.000,5132.3742,N,00000.5398,W,1,07,1.82,66.2,M,47.$GPGGA,151045.000,5132.3745,N,00000.5401,W,1,07,1.82,65.7,M,47.$GPGGA,151046.000,5132.3746,N,00000.5420,W,1,07,1.82,65.5,M,47.$TG,247.86,T,,M,7.99,N,14.81,K,A*09
m:719,-16788
m:727,-7357
m:704,552
m:513,2285
m:676,13252
m:495,4592
m:694,-3002
m:716,-10286
m:702,-4551
m:700,12486
m:496,21332
m:681,24474
m:493,-2936
m:682,-2082
m:716,26982
m:706,-24884
m:681,7064
m:694,12589
m:648,27276
m:468,3918
m:668,-13615
m:690,9369
m:663,9449
m:670,21170
m:714,-15790
m:670,13544
m:692,13346
m:659,-23753
m:488,30230
m:668,8233
m:678,-12368
m:687,-21646
$GPGGA,151047.000,5132.3732,N,00000.5449,W,1,07,1.82,65.3,M,47.$GPGGA,151048.000,5132.3722,N,00000.5487,W,1,07,1.82,65.0,M,47.$GPGGA,151049.000,5132.3742,N,00000.5518,W,1,08,1.56,64.6,M,47.$GPGGA,151050.000,5132.3740,N,00000.5567,W,1,08,1.56,63.9,M,47.0,M,,*4F
$GPGSA,A,3,08,27,07,11,20,18,10,30,,,,,1.81,1.5$GPGGA,151051.000,5132.3763,N,00000.5598,W,1,08,1.56,63.6,M,47.271,122m:676,-21892
m:723,6949
m:652,20044
m:483,-21381
m:665,19166
m:703,-4100
m:687,29726
m:680,5237
m:704,22837
m:644,32218
m:481,-4024
m:647,11440
m:699,-27393
m:661,-3023
m:662,2319
m:588,13040
m:656,21678
m:467,25707
m:639,-4472
m:482,12416
m:626,-6985
m:536,1946
m:650,30012
m:674,-30256
m:690,5928
m:650,-9716
m:440,28619
m:636,2842
m:459,-16224
m:650,22342
m:458,-20356
m:638,-18778
,27,08,68,294,26,10,57,092,33,20,37,059,27*76
$GPGSV,3,2,11,18SA,3,08,27,07,11,20,18,10,30,,,,,1.81,1.56,0.91*03
$GPRMC,151052.000$GPGGA,151053.000,5132.3765,N,00000.5655,W,1,08,1.56,62.6,M,47.000.5655,W,5.84,317.47,040718,,,A*7B
$GPVTG,317.47,T,,M,5.84,N,10.82,$GPGGA,151054.000,5132.3785,N,00000.5665,W,1,08,1.56,62.3,M,47.$GPGGA,151055.000,5132.3791,N,00000.5673,W,1,08,1.56,61.8,M,47.m:426,27327
m:625,-28943
m:656,-25378
m:616,21740
m:695,7297
m:623,14494
m:695,-29146
m:648,-2027
m:630,25510
m:648,-12584
m:668,-15642
m:657,7904
m:614,3066
m:643,28483
m:667,-2892
m:638,-31310
m:612,-23593
m:590,32452
m:499,1762
m:638,-11206
m:432,-10116
m:567,6694
m:487,-17871
m:607,-19229
m:666,20471
m:643,-4877
m:694,-9276
m:648,-16566
m:675,-19437
m:647,-2254
m:629,-2080
m:613,-5728
$GPGGA,151056.000,5132.3812,N,00000.5671,W,1,08,2.01,61.4,M,47.,,12*70
$GPGSV,3,3,12,07,10,279,17,28,06,328,,32,06,124,27,01,,,31*4$GPGGA,151057.000,5132.3837,N,00000.5670,W,1,08,2.01,60.9,M,47.$GPGGA,151058.000,5132.3854,N,00000.5678,W,1,08,2.01,60.4,M,47.$GPGGA,151059.000,5132.3875,N,00000.5686,W,1,08,2.01,59.8,M,47.m:583,-6678
m:635,11190
m:652,30558
m:676,-31434
m:571,11243
m:675,23700
m:624,-10046
m:627,-19524
m:676,-19356
m:603,27792
m:671,7364
m:589,-14677
m:691,-38
m:582,-11020
m:677,-468
m:618,19838
m:642,-30610
m:663,3676
m:630,-16066
m:639,5303
m:660,-2274
m:628,-32754
m:604,30376
m:535,7822
m:625,-24508
m:629,3516
m:635,21573
m:684,-19698
m:642,-17446
m:594,24565
m:649,23219
m:640,12942
$GPGGA,151100.000,5132.3897,N,00000.5692,W,1,08,2.01,59.2,M,47.$GPGGA,151101.000,5132.3924,N,00000.5700,W,1,07,2.10,58.6,M,47.A
$GPGGA,151102.000,5132.3953,N,00000.5709,W,1,07,2.10,57.8,M,47.0,M,,*47
$GPGSA,A,3,08,27,1$GPGGA,151103.000,5132.3984,N,00000.5724,W,1,07,2.52,57.0,M,47.23*02
$GPRMC,151103.000,A,5132.3984,N,00000.5724,W,10.23,338.69,04071m:630,-12886
m:617,-25296
m:636,-917
m:610,21126
m:628,9170
m:692,2007
m:646,16366
m:654,2849
m:586,11648
m:660,21543
m:675,-18698
m:661,26742
m:605,21108
m:651,23528
m:695,7487
m:605,-15494
m:634,-23724
m:639,-19001
m:707,18596
m:598,30595
m:644,-22646
m:688,-6633
m:608,-11862
m:573,-21818
m:661,20274
m:670,-9014
m:585,9188
m:694,-24804
m:655,-26911
m:621,2816
m:646,10576
m:659,-19470
$GPGGA,151104.000,5132.4019,N,00000.5744,W,1,07,2.11,56.3,M,47.$GPGGA,151105.000,5132.4061,N,00000.5768,W,1,08,1.56,55.6,M,47..*03
$GPRMC,151105.000,A,5132.4061,N,00000.5768,W,12.09,334.77,040718$GPGGA,151106.000,5132.4097,N,00000.5789,W,1,08,1.56,54.9,M,47.514,39,26,149,,11,230,11,307,12*72
$GPGSV,3,3,11,07,09,279,17,28,06,328,,32,06,124,25*4$GPGGA,151107.000,5132.4129,N,00000.5815,W,1,08,1.56,54.1,M,47.m:645,16454
m:604,31016
m:713,6925
m:621,28806
m:697,998
m:668,5716
m:662,7598
m:681,6858
m:660,716
m:679,2978
m:636,-22021
m:686,-24224
m:668,-11396
m:647,7800
m:681,-9288
m:650,21516
m:662,23028
m:705,-1916
m:621,-21605
m:668,-18076
m:702,-29108
m:602,12109
m:691,-9855
m:680,28648
m:662,-20324
m:612,24618
m:715,24567
m:671,17209
m:621,-10952
m:649,-30070
m:700,-23220
m:696,714
$GPGGA,151108.000,5132.4161,N,00000.5838,W,1,08,1.56,53.3,M,47.$GPGGA,151109.000,5132.4191,N,00000.5859,W,1,08,1.56,52.6,M,47.$GPGGA,151110.000,5132.4225,N,00000.5879,W,1,08,1.56,51.8,M,47.$GPGGA,151111.000,5132.4253,N,00000.5899,W,1,08,1.56,51.1,M,47.,*30
m:619,-14161
m:657,-5421
m:658,-20480
m:678,6676
m:606,-804
m:694,26590
m:700,15434
m:655,16714
m:628,12251
m:682,-18426
m:693,28368
m:639,-16753
m:628,17882
m:644,-505
m:734,-5161
m:626,21816
m:663,31568
m:664,-16698
m:707,-30552
m:621,1141
m:705,-6441
m:662,-29649
m:621,-7576
m:665,19399
m:614,-6968
m:573,-13957
m:680,-30612
m:693,17980
m:597,-988
m:712,9196
m:678,-972
m:633,3702
$GPGGA,151112.000,5132.4287,N,00000.5923,W,1,07,1.60,50.4,M,47.$GPGGA,151113.000,5132.4323,N,00000.5953,W,1,07,1.60,49.7,M,47.$GPGGA,151114.000,5132.4359,N,00000.5989,W,1,07,1.60,49.1,M,47.0,M,,*43
$GPGSA,A,3,08,27,07,20,18,1$GPGGA,151115.000,5132.4390,N,00000.6037,W,1,06,2.13,48.3,M,47.$RMC,151115.000,A,5132.4390,N,00000.6037,W,15.44,308.85,040718,,,A*4D
$GPVTG$GPGGA,151116.000,5132.4419,N,00000.6086,W,1,06,2.13,47.5,M,47.3,,07,0m:663,-12159
m:674,-25888
m:633,17803
m:676,26874
m:641,20560
m:683,12586
m:680,-10055
m:650,1976
m:697,23936
m:647,11424
m:722,-15068
m:633,14302
m:694,16419
m:656,-13914
m:697,-20542
m:667,24825
m:667,30956
m:671,-1246
m:648,-28472
m:718,24455
m:656,20468
m:697,-1052
m:628,17708
m:705,31233
m:685,-2624
m:619,-31649
m:716,30651
m:609,23909
m:745,-28295
m:644,3750
m:689,14075
m:701,6759
9,279,17*70
$GPGSV,3,3,12,40,07,110,,28,06,328,23,32,06,124,33.306.01,040718,,,A*47
$GPVTG,306.01,T,,M,13.70,N,25.38,K,A*30
$GPGGA,151118.000,5132.4467,N,00000.6178,W,1,07,2.11,46.0,M,47.$GPGGA,151119.000,5132.4487,N,00000.6225,W,1,07,2.11,45.2,M,47.m:624,366
m:699,-9972
m:698,26934
m:485,-19584
m:635,-10952
m:727,13594
m:620,-15605
m:689,20057
m:690,1958
m:703,-13142
m:636,-8539
m:625,-23248
m:660,-30862
m:674,-27431
m:667,2430
m:633,1761
m:634,-30172
m:618,27976
m:638,-19996
m:683,24794
m:693,31200
m:621,2298
m:672,-7728
m:687,29189
m:680,24229
m:644,1450
m:608,-5402
m:684,-3948
m:680,-14213
m:638,19952
m:598,-135
m:662,20676
$GPGGA,151120.000,5132.4506,N,00000.6273,W,1,07,2.11,44.2,M,47.$GPGGA,151121.000,5132.4531,N,00000.6320,W,1,07,2.52,43.5,M,47.,
$GPGSA,A,3,08,27,07,11,20,18,10,,,,,,3.37,2.52,2.23*03
$GPGSV,3,1$GPGGA,151122.000,5132.4562,N,00000.6388,W,1,07,2.11,42.6,M,47.5.4562,N,00000.6388,W,19.27,300.36,040718,,,A*4C
$GPVTG,300.36,T,,M,19.27,$GPGGA,151123.000,5132.4591,N,00000.6462,W,1,07,2.11,41.7,M,47.m:659,-30033
m:731,32668
m:648,16287
m:638,-29138
m:708,5896
m:698,7526
m:639,-11174
m:662,3652
m:470,857
m:633,31307
m:658,76
m:611,13564
m:740,-13599
m:623,-27840
m:719,21459
m:646,-10568
m:655,-22724
m:670,-21268
m:650,17910
m:679,22722
m:650,-17918
m:664,10534
m:692,-26644
m:652,-4934
m:694,25490
m:663,2276
m:675,11523
m:680,12679
m:698,-17672
m:611,-5876
m:731,1656
m:691,28436
$GPGGA,151124.000,5132.4618,N,00000.6535,W,1,07,2.11,40.8,M,47.$GPGGA,151125.000,5132.4647,N,00000.6609,W,1,07,2.11,39.8,M,47.$GPGGA,151126.000,5132.4676,N,00000.6684,W,1,07,2.11,38.9,M,47.C51126.000,A,5132.4676,N,00000.6684,W,19.43,301.19,040718,,,A*49
$GP$GPGGA,151127.000,5132.4705,N,00000.6760,W,1,07,2.11,38.0,M,47.$GPGGA,151128.000,5132.4736,Nm:652,14462
m:644,9518
m:710,-1380
m:672,-4661
m:632,-30779
m:660,30011
m:623,23293
m:697,-24612
m:678,24173
m:719,-3951
m:709,-10530
m:698,32175
m:502,-21054
m:693,2900
m:728,-19201
m:700,16029
m:693,-20582
m:681,-31632
m:647,23808
m:654,20808
m:640,5261
m:708,28928
m:714,22384
m:702,-26449
m:660,-1168
m:640,-23572
m:494,-23286
m:687,-24696
m:674,9835
m:670,9854
m:729,10826
m:645,-1236
,00000.6837,W,1,07,2.11,37.6,M,47.0,M,,*4D
$GPGSA,A,3,08,27,0719.000,5132.4778,N,00000.6853,W,1,07,2.11,37.4,M,47.0,M,,*46
$GPGSA,A$GPGGA,151130.000,5132.4758,N,00000.6864,W,1,07,2.11,36.2,M,47.0,M,,*4F
$GPGSA,A,3,08,27,07,11,20,18,10,,,,,,2.30,2.11,0.91*09$GPGGA,151131.000,5132.4755,N,00000.6895,W,1,07,2.11,35.0,M,47.,2.30,2.11,0.91*09
$GPGSV,3,1,12,27,70,122,30,08,68,294,29,10,57,092$GPGGA,151132.000,5132.4768,N,00000.6934,W,1,06,2.29,33.7,M,47.m:661,3466
m:721,21632
m:672,4500
m:714,14999
m:650,5520
m:667,-8605
m:716,1178
m:612,18690
m:701,-15052
m:654,-25682
m:697,-25574
m:651,1777
m:635,13062
m:659,26165
m:627,26112
m:675,-12528
m:618,-23468
m:682,-10768
m:645,-14407
m:670,-21096
m:670,-31384
m:656,-26457
m:665,-1125
m:609,25258
m:695,9369
m:697,2974
m:721,6060
m:665,3429
m:628,19890
m:495,24113
m:666,30707
m:686,-25648
$GPGGA,151133.000,5132.4773,N,00000.6970,W,1,07,1.58,32.6,M,47.,2.01,N,22.26,K,A*33
$GPGGA,151134.000,5132.4780,N,00000.7008,W,1,07,2.12,31.6,M,47.$GPGGA,151135.000,5132.4793,N,00000.7053,W,1,08,1.57,30.5,M,47.$GPGGA,151136.000,5132.4807,N,00000.7106,W,1,08,2.02,29.4,M,47.05132.m:674,15836
m:692,5083
m:652,-27615
m:672,25778
m:719,-4770
m:617,17838
m:711,-1892
m:690,-12391
m:648,13250
m:715,23404
m:651,-25452
m:675,-7702
m:677,20362
m:708,-23378
m:663,5822
m:663,28998
m:717,-19759
m:686,16374
m:707,-12178
m:708,7946
m:671,5216
m:696,-29366
m:645,32
m:677,-22295
m:655,-16776
m:638,-1768
m:530,-6488
m:647,-6258
m:704,-15548
m:699,30710
m:692,-25500
m:467,10756
4807,N,00000.7106,W,14.61,290.63,040718,,,A*45
$GPVTG,290.63,T$GPGGA,151138.000,5132.4841,N,00000.7212,W,1,08,2.03,27.0,M,47.$GPGGA,151139.000,5132.4867,N,00000.7261,W,1,08,2.02,25.7,M,47.$GPGGA,151140.000,5132.4887,N,00000.7312,W,1,08,2.02,24.3,M,47.0,M,,*41
$GPGSA,A,3,08,27,11,20,18,10,07,30m:638,-6863
m:668,14720
m:648,23074
m:672,-23450
m:480,-19421
m:620,-25401
m:664,-23899
m:658,-32552
m:659,2638
m:555,2790
m:652,-3174
m:703,25150
m:655,19261
m:644,26356
m:671,22370
m:646,-22018
m:690,-20583
m:655,-24606
m:676,-14368
m:689,2379
m:637,-25336
m:677,3915
m:672,20554
m:670,16154
m:693,7495
m:647,19500
m:684,-15058
m:493,-14124
m:644,-27892
m:680,-9098
m:675,12463
m:654,-13272
$GPGGA,151141.000,5132.4906,N,00000.7363,W,1,08,2.02,23.1,M,47.$GPGGA,151142.000,5132.4925,N,00000.7417,W,1,08,2.02,22.0,M,47.,D
$GPGSA,A,3,08,27,11,20,18,10,07,30,,,,,3.01,2.02,2.22*01
$GPRMC,$GPGGA,151143.000,5132.4942,N,00000.7469,W,1,08,2.03,20.9,M,47..2,N,00000.7469,W,13.54,301.95,040718,,,A*4A
$GPVTG,301.95,T,,M,13.5$GPGGA,151144.000,5132.4959,N,00000.7520,W,1,08,2.03,19.9,M,47.m:645,4681
m:662,-8785
m:661,-27341
m:584,25822
m:668,26908
m:675,-7017
m:661,9875
m:673,-26412
m:671,-2148
m:633,10198
m:693,-13447
m:698,25900
m:681,21391
m:713,8756
m:665,-25468
m:712,27588
m:651,32146
m:634,-19091
m:720,22992
m:648,8707
m:669,9829
m:699,-22392
m:630,29290
m:684,6742
m:679,-28881
m:553,6600
m:622,15280
m:703,24554
m:688,5247
m:701,-21164
m:706,-26789
m:664,-16964
$GPGGA,151145.000,5132.4975,N,00000.7567,W,1,07,2.12,18.8,M,47.$GPGGA,151146.000,5132.4990,N,00000.7613,W,1,07,2.13,17.8,M,47.336,,,,21,,,16*70
$GPRMC,151146.000,A,5132.4990,N,00000.7613,W,12.37,$GPGGA,151147.000,5132.5008,N,00000.7659,W,1,06,2.54,16.7,M,47.$GPGGA,151148.000,5132.5020,N,00000.7703,W,1,07,2.13,15.7,M,47.m:676,-13038
m:604,24296
m:666,22495
m:676,17210
m:697,16168
m:633,-25783
m:688,-8304
m:657,2238
m:675,15086
m:645,-23435
m:661,-27064
m:666,15990
m:607,-1452
m:712,2866
m:688,-29870
m:687,-18273
m:725,27631
m:822,22574
m:775,5466
m:805,27662
m:798,22146
m:868,6426
m:866,8158
m:875,-26062
m:884,-21516
m:828,5401
m:858,32686
m:854,-19448
m:912,-23417
m:893,8445
m:928,-22028
m:915,-19765
$GPGGA,151149.000,5132.5033,N,00000.7748,W,1,07,2.13,14.7,M,47.$GPGGA,151150.000,5132.5046,N,00000.7791,W,1,07,2.13,14.5,M,47.$GPGGA,151151.000,5132.5064,N,00000.7821,W,1,07,2.13,13.9,M,47.0,M,,*4F
$GPGSA,A,3,08,27,11,20,18,10,3$GPGGA,151152.000,5132.5079,N,00000.7844,W,1,07,1.58,13.2,M,47.68.17,040718,,,A*7C
$GPVTG,318.17,T,,M,7.56,N,14.01,K,A*01
m:854,11028
m:820,-15160
m:808,-17930
m:624,-25192
m:776,5162
m:579,-18298
m:730,5004
m:721,30185
m:767,-2808
m:785,21499
m:781,9504
m:767,-2962
m:789,21185
m:770,-29464
m:776,31869
m:701,12194
m:768,-8652
m:768,29713
m:731,-1471
m:705,13112
m:652,-610
m:711,7704
m:600,-3760
m:754,3018
m:616,-17498
m:744,-18792
m:729,-11506
m:718,-4631
m:715,25614
m:798,-13096
m:807,23258
m:836,-4892
$GPGGA,151153.000,5132.5096,N,00000.7854,W,1,07,1.58,12.7,M,47.$GPGGA,151154.000,5132.5120,N,00000.7831,W,1,07,2.13,12.0,M,47.$GPGGA,151155.000,5132.5140,N,00000.7802,W,1,07,2.13,11.1,M,47.$GPGGA,151156.000,5132.5146,N,00000.7755,W,1,07,2.13,10.2,M,47.024,20,38,,,26,21,,,13*76
$GPRMC,151156.000,A,5132.5146,N,00000.7755,W,13.m:813,23892
m:836,-2470
m:774,-30176
m:767,-22718
m:817,-31053
m:881,-565
m:885,4640
m:906,22810
m:864,10298
m:881,6392
m:883,-8274
m:877,30916
m:970,6845
m:882,27868
m:913,4833
m:966,7556
m:950,-30094
m:900,22678
m:948,26988
m:894,-23962
m:859,12117
m:738,-17457
m:899,-14786
m:768,16084
m:915,29915
m:707,11497
m:869,-3781
m:681,22955
m:825,-1528
m:838,-30356
m:796,-13124
m:849,13568
$GPGGA,151157.000,5132.5156,N,00000.7704,W,1,07,2.13,9.5,M,47.0$GPGGA,151158.000,5132.5159,N,00000.7651,W,1,08,1.57,8.5,M,47.0$GPGGA,151159.000,5132.5144,N,00000.7601,W,1,08,2.03,7.5,M,47.0$GPGGA,151200.000,5132.5125,N,00000.7554,W,1,08,2.03,6.5,M,47.0$GPGGA,151201.000,5132.5105,N,00000.7508,W,1,08,2.03,5.4,m:816,1634
m:784,-31368
m:783,-20050
m:836,-3820
m:753,-4100
m:810,22253
m:699,21282
m:718,10166
m:765,13924
m:780,-21111
m:824,-7626
m:789,-3854
m:788,14040
m:728,30316
m:753,-248
m:704,23003
m:752,21528
m:707,-12068
m:748,18560
m:724,-13024
m:789,-14789
m:799,-14473
m:826,-9158
m:739,15946
m:734,-9641
m:744,12690
m:824,12635
m:729,7629
m:744,-9846
m:799,-3786
m:725,-20872
m:732,2670
M,47.0,M,,*7D
$GPGSA,A,3,08,27,11,20,18,10,07,30,,,,,3.02,2.03$GPGGA,151202.000,5132.5087,N,00000.7460,W,1,08,2.03,4.6,M,47.0$GPGGA,151203.000,5132.5065,N,00000.7412,W,1,08,2.03,3.8,M,47.0,,08,27,11,20,18,10,07,30,,,,,3.01,2.03,2.22*00
$GPRMC,151203.000,A,$GPGGA,151204.000,5132.5042,N,00000.7364,W,1,08,2.03,3.3,M,47.0.040,,A*4F
