ŠµÁ11,MTKGPS*08
$PMTK010,001*2E
$PMTK010,002*2D
$GPGGA,23594$GPGGA,235943.800,,,,,0,00,,,M,,M,,*7A
$GPGSA,A,1,,,,,,,,,,,,,$GPGGA,235944.799,,,,,0,00,,,M,,M,,*72
$GPGSA,A,1,,,,,,,,,,,,,m:49,-30122
m:24,2182
m:47,25949
m:47,-3582
m:64,17762
m:28,-24
m:51,24094
m:53,17554
m:51,-7637
m:51,-17942
m:44,5930
m:61,-16173
m:41,-13534
m:46,-10634
m:44,-11124
m:41,-23832
m:51,2774
m:41,-27960
m:42,11533
m:39,19452
m:45,2372
m:49,14732
m:38,-11869
m:43,-26155
m:44,-8670
m:46,24403
m:41,-6899
m:44,-20044
m:42,-582
m:38,-12199
m:41,17204
m:42,-12367
$GPGGA,235945.799,,,,,0,00,,,M,,M,,*73
$GPGSA,A,1,,,,,,,,,,,,,$GPGGA,235946.799,,,,,0,00,,,M,,M,,*70
$GPGSA,A,1,,,,,,,,,,,,,$GPGGA,235947.799,,,,,0,00,,,M,,M,,*71
$GPGSA,A,1,,,,,,,,,,,,,$GPGGA,235948.799,,,,,0,00,,,M,,M,,*7E
$GPGSA,A,1,,,,,,,,,,,,,$GPGGA,235949.799,,,,,0,00,,,M,,M,,*7F
$GPGSA,A,1m:53,-11972
m:34,-5812
m:45,20156
m:42,14341
m:50,-25365
m:50,-21252
m:54,5237
m:50,-11830
m:36,6662
m:49,22935
m:41,-9024
m:42,16278
m:39,27195
m:47,-26675
m:40,-12002
m:52,13798
m:56,-5004
m:44,-3101
m:49,-18074
m:45,-21207
m:32,28626
m:46,-21824
m:44,29474
m:41,-9912
m:41,-15011
m:42,-23184
m:40,-22079
m:44,-16436
m:38,-20574
m:54,-27733
m:41,-23182
m:39,-24972
,,,,,,,,,,,,,,,*1E
$GPRMC,235949.799,V,,,,,0.00,0.00,050180,,,$GPGGA,235950.800,,,,,0,00,,,M,,M,,*78
$GPGSA,A,1,,,,,,,,,,,,,$GPGGA,235951.800,,,,,0,00,,,M,,M,,*79
$GPGSA,A,1,,,,,,,,,,,,,,,*1E
$GPGSV,1,1,00*79
$GPRMC,235951.800,V,,,,,0.00$GPGGA,235952.800,,,,,0,00,,,M,,M,,*7A
$GPGSA,A,1,,,,,,,,,,,,,V0.00,T,,M,0.00,N,0.00,K,N*32
$GPGGA,235953.800,,,,,0,00,,,M,,M,,*7B
$GPGSA,A,1,,,,,,,,,,,,,m:43,-7637
m:39,-17550
m:41,24623
m:40,17570
m:44,-19207
m:38,30616
m:40,-20914
m:41,-26052
m:36,-3674
m:36,25367
m:55,-24420
m:42,7217
m:37,27444
m:43,-32470
m:64,-12634
m:42,31380
m:47,-15492
m:32,10848
m:43,-20951
m:43,22932
m:46,1863
m:43,4079
m:46,6893
m:45,-28804
m:43,14621
m:39,30602
m:59,28198
m:29,-20660
m:46,-19692
m:45,16065
m:38,-22356
m:53,25915
$GPGGA,235954.800,,,,,0,00,,,M,,M,,*7C
$GPGSA,A,1,,,,,,,,,,,,,,0.00,N,0.00,K,N*32
$GPGGA,235955.800,,,,,0,00,,,M,,M,,*7D
$GPGSA,A,1,,,,,,,,,,,,,$GPGGA,235956.800,,,,,0,00,,,M,,M,,*7E
$GPGSA,A,1,,,,,,,,,,,,,$GPGGA,235957.800,,,,,0,00,,,M,,M,,*7F
$GPGSA,A,1,,,,,,,,,,,,,m:40,8752
m:53,9557
m:40,-26015
m:50,-29894
m:35,-4761
m:38,-16556
m:36,-31379
m:45,-2029
m:34,-804
m:44,19726
m:46,32416
m:44,-10196
m:43,-19827
m:45,17067
m:44,-5798
m:47,32384
m:43,-30700
m:38,6306
m:39,-28448
m:46,-9558
m:42,-13978
m:44,28843
m:37,-21874
m:34,-25954
m:41,-2882
m:44,-22852
m:43,-9605
m:43,-18940
m:49,-27002
m:41,-6404
m:30,-12792
m:49,15268
$GPGGA,235958.800,,,,,0,00,,,M,,M,,*70
$GPGSA,A,1,,,,,,,,,,,,,$GPGGA,235959.800,,,,,0,00,,,M,,M,,*71
$GPGSA,A,1,,,,,,,,,,,,,$GPGGA,000000.800,,,,,0,00,,,M,,M,,*70
$GPGSA,A,1,,,,,,,,,,,,,$GPGGA,000001.800,,,,,0,00,,,M,,M,,*71
$GPGSA,A,1,,,,,,,,,,,,,m:39,26484
m:32,802
m:34,4709
m:39,7264
m:42,8536
m:38,-13692
m:40,26728
m:38,11148
m:49,4322
m:31,-2368
m:41,-30072
m:33,-1586
m:41,23968
m:41,-11180
m:43,10716
m:48,-19084
m:47,-31062
m:33,-21139
m:35,9424
m:42,24842
m:32,-22824
m:37,10244
m:37,-24851
m:34,11680
m:34,-13062
m:39,16080
m:39,-29250
m:42,-5379
m:43,20661
m:39,-5343
m:43,-15854
m:41,26092
$GPGGA,000002.800,,,,,0,00,,,M,,M,,*72
$GPGSA,A,1,,,,,,,,,,,,,$GPGGA,000003.800,,,,,0,00,,,M,,M,,*73
$GPGSA,A,1,,,,,,,,,,,,,$GPGGA,000004.800,,,,,0,00,,,M,,M,,*74
$GPGSA,A,1,,,,,,,,,,,,,$GPGGA,000005.800,,,,,0,00,,,M,,M,,*75
$GPGSA,A,1,,,,,,,,,,,,,m:48,28601
m:42,-27821
m:32,-26531
m:38,-28300
m:42,-6316
m:33,-23032
m:40,-13803
m:45,28582
m:33,24686
m:41,-15828
m:39,29080
m:43,-25700
m:41,-25096
m:40,-10376
m:38,15813
m:47,329
m:45,7516
m:44,-20408
m:49,-20082
m:49,-14004
m:36,-11578
m:45,22510
m:42,-21168
m:32,15513
m:28,-8113
m:40,24395
m:26,15392
m:39,29997
m:43,-17828
m:41,-25660
m:44,30066
m:35,-25888
$GPGGA,000006.423,,,,,0,00,,,M,,M,,*7B
$GPGSA,A,1,,,,,,,,,,,,,$GPGGA,000007.423,,,,,0,00,,,M,,M,,*7A
$GPGSA,A,1,,,,,,,,,,,,,$GPGGA,161656.096,,,,,0,00,,,M,,M,,*74
$GPGSA,A,1,,,,,,,,,,,,,$GPGGA,161657.096,,,,,0,00,,,M,,M,,*75
$GPGSA,A,1,,,,,,,,,,,,,$GPGGA,161658.09m:39,2537
m:42,-8127
m:34,-14154
m:41,-21994
m:38,-29982
m:35,-5354
m:45,-11537
m:40,-18920
m:38,24519
m:50,15402
m:35,-25584
m:38,-9261
m:49,-27235
m:36,4678
m:39,-10686
m:34,6425
m:34,1139
m:40,-11190
m:36,5295
m:35,32606
m:43,17556
m:38,-3044
m:44,-9726
m:33,-17368
m:39,-30391
m:42,15192
m:51,-12564
m:35,-21040
m:36,-29618
m:36,6418
m:37,15036
m:38,14168
6,,,,,0,00,,,M,,M,,*7A
$GPGSA,A,1,,,,,,,,,,,,,,,*1E
$GPRMC,16$GPGGA,161659.096,,,,,0,00,,,M,,M,,*7B
$GPGSA,A,1,,,,,,,,,,,,,$GPGGA,161700.090,,,,,0,00,,,M,,M,,*70
$GPGSA,A,1,,,,,,,,,,,,,,,*1E
$GPRMC,161700.090,V,,,,,0.00,0.0$GPGGA,161701.309,,,,,0,00,,,M,,M,,*72
$GPGSA,A,1,,,,,,,,,,,,,m:43,-24998
m:46,-19012
m:36,24765
m:35,23522
m:38,6790
m:48,1531
m:35,8522
m:38,32534
m:37,2398
m:43,23159
m:40,-31096
m:39,-18077
m:40,-28496
m:43,18675
m:34,13604
m:39,-30235
m:38,32329
m:48,-29284
m:39,-22177
m:42,5554
m:36,5299
m:41,17682
m:35,-11009
m:39,-7117
m:38,-6336
m:35,10464
m:36,-9184
m:30,32496
m:44,13941
m:34,-8970
m:37,-5205
m:39,28120
$GPGGA,161702.309,,,,,0,00,,,M,,M,,*71
$GPGSA,A,1,,,,,,,,,,,,,$GPGGA,161703.309,,,,,0,00,,,M,,M,,*70
$GPGSA,A,1,,,,,,,,,,,,,$GPGGA,161704.309,,,,,0,00,,,M,,M,,*77
$GPGSA,A,1,,,,,,,,,,,,,$GPGGA,161705.309,,,,,0,00,,,M,,M,,*76
$GPGSA,A,1,,,,,,,,,,,,,,,*1E
$GPRMC,16$GPGGA,161706.090,,,,,0,00,,,M,,M,,*76
$GPGSA,A,1,,,,,,,,,,,,,9GPVTG,m:31,-29980
m:36,14510
m:50,28267
m:34,16164
m:36,-25247
m:37,6443
m:39,8198
m:35,-19253
m:36,16050
m:32,-15076
m:44,29313
m:43,-3450
m:33,-493
m:43,31348
m:31,27160
m:39,-14689
m:43,-15313
m:36,27726
m:40,-15788
m:46,2399
m:39,-18811
m:38,27736
m:30,18078
m:41,3442
m:31,-26024
m:53,-19678
m:118,18676
m:141,-22068
m:34,-29768
m:736,29386
m:218,-4805
m:61,26254
0.00,T,,M,0.00,N,0.00,K,N*32
$GPGGA,161707.309,,,,,0,00,,,M,,MS,1,,,,,,,,,,,,,,,*1E
$GPGSV,1,1,02,27,,,30,08,,,30*76
$GPRMC,161707.309,$GPGGA,161708.309,,,,,0,00,,,M,,M,,*7B
$GPGSA,A,1,,,,,,,,,,,,,032
$GPGGA,161709.309,,,,,0,00,,,M,,M,,*7A
$GPGSA,A,1,,,,,,,,,,,,,$GPGGA,161710.309,,,,,0,00,,,M,,M,,*72
$GPGSA,A,1,,,,,,,,,,,,,m:26,29064
m:34,-9438
m:39,6371
m:51,-5596
m:88,-19374
m:536,8600
m:815,-3270
m:63,9856
m:849,23856
m:95,2772
m:912,2658
m:550,-6858
m:182,-27028
m:496,12617
m:759,30070
m:837,-9999
m:812,-4360
m:677,5062
m:385,-24396
m:387,27720
m:863,-24944
m:613,15458
m:622,31872
m:797,1164
m:618,1297
m:444,14177
m:883,-16866
m:745,-8224
m:609,32611
m:393,292
m:416,29553
m:442,-17856
$GPGGA,161711.309,,,,,0,00,,,M,,M,,*73
$GPGSA,A,1,,,,,,,,,,,,,$GPGGA,161712.090,,,,,0,00,,,M,,M,,*73
$GPGSA,A,1,,,,,,,,,,,,,$GPGGA,161713.309,,,,,0,00,,,M,,M,,*71
$GPGSA,A,1,,,,,,,,,,,,,$GPGGA,161714.309,,,,,0,00,,,M,,M,,*76
$GPGSA,A,1,,,,,,,,,,,,,m:678,6234
m:761,-26008
m:664,-4038
m:413,-28153
m:709,20934
m:405,11123
m:761,16472
m:467,-11227
m:514,-6027
m:746,8032
m:686,-23061
m:613,20018
m:558,-29646
m:583,-6253
m:668,-20109
m:771,30440
m:703,-12002
m:548,20040
m:825,-1229
m:572,20524
m:831,-16808
m:706,-4855
m:646,-1761
m:754,-32018
m:865,-27084
m:773,7837
m:793,-1592
m:651,-8805
m:627,-4503
m:784,31231
m:656,31724
m:662,22388
$GPGGA,161715.309,,,,,0,00,,,M,,M,,*77
$GPGSA,A,1,,,,,,,,,,,,,$GPGGA,161716.309,,,,,0,00,,,M,,M,,*74
$GPGSA,A,1,,,,,,,,,,,,,$GPGGA,161717.309,,,,,0,00,,,M,,M,,*75
$GPGSA,A,1,,,,,,,,,,,,,$GPGGA,161718.097,,,,,0,00,,,M,,M,,*7E
$GPGSA,A,1,,,,,,,,,,,,,,,*1E
$GPRMC,161718.097,V,,,,,0.00,0.00,060718,,,N*43
$GPVTG,0.0m:653,-2236
m:749,27784
m:635,-22016
m:639,19067
m:624,-19932
m:648,11286
m:627,10917
m:615,27608
m:652,-29574
m:646,23092
m:679,10425
m:738,-22469
m:766,-20642
m:704,-24646
m:687,800
m:726,11438
m:703,5304
m:707,20564
m:715,-30356
m:678,-29564
m:723,27016
m:722,226
m:685,16292
m:705,30384
m:656,16274
m:738,-20382
m:728,13963
m:799,-8087
m:787,-15767
m:804,18872
m:775,13460
m:806,-26357
$GPGGA,161719.097,,,,,0,00,,,M,,M,,*7F
$GPGSA,A,1,,,,,,,,,,,,,$GPGGA,161720.097,,,,,0,00,,,M,,M,,*75
$GPGSA,A,1,,,,,,,,,,,,,$GPGGA,161721.097,,,,,0,00,,,M,,M,,*74
$GPGSA,A,1,,,,,,,,,,,,,$GPGGA,161722.097,,,,,0,00,,,M,,M,,*77
$GPGSA,A,1,,,,,,,,,,,,,m:740,16480
m:755,-27549
m:694,14150
m:765,18604
m:797,-29460
m:773,19752
m:750,-19653
m:693,32293
m:786,26586
m:792,22016
m:679,16728
m:776,8140
m:760,20523
m:661,-7818
m:763,13456
m:703,-22576
m:757,-17268
m:657,30502
m:751,-14075
m:680,1458
m:758,-22192
m:643,-19372
m:677,90
m:735,-7003
m:655,9575
m:695,29977
m:733,1088
m:656,5966
m:577,21584
m:624,12112
m:702,19026
m:708,-2223
$GPGGA,161723.097,,,,,0,00,,,M,,M,,*76
$GPGSA,A,1,,,,,,,,,,,,,$GPGGA,161724.092,,,,,0,00,,,M,,M,,*74
$GPGSA,A,1,,,,,,,,,,,,,
VTG,0.00,T,,M,0.00,N,0.00,K,N*32
$GPGGA,161725.313,,,,,0,00,,,M,,M,,*7F
$GPGSA,A,1,,,,,,,,,,,,,$GPGGA,161726.313,,,,,0,00,,,M,,M,,*7C
$GPGSA,A,1,,,,,,,,,,,,,m:680,-28202
m:649,5248
m:617,8424
m:619,1906
m:646,28342
m:663,-10678
m:702,4460
m:691,11042
m:698,-989
m:683,15925
m:674,-3129
m:636,23756
m:635,20790
m:611,-20530
m:612,19759
m:603,-14896
m:605,-27059
m:592,-2254
m:604,16329
m:618,-24972
m:638,-12531
m:654,-30947
m:672,4594
m:683,-8765
m:672,-12536
m:632,12980
m:588,10232
m:575,-696
m:622,-19646
m:622,17438
m:595,-17747
m:516,19843
$GPGGA,161727.313,,,,,0,00,,,M,,M,,*7D
$GPGSA,A,1,,,,,,,,,,,,,$GPGGA,161728.313,,,,,0,00,,,M,,M,,*72
$GPGSA,A,1,,,,,,,,,,,,,$GPGGA,161729.313,,,,,0,00,,,M,,M,,*73
$GPGSA,A,1,,,,,,,,,,,,,$GPGGA,161730.092,,,,,0,00,,,M,,M,,*71
$GPGSA,A,1,,,,,,,,,,,,,,,14,,,24*74
$GPRMC,161730.092,V,,,,,0.00,0.00,060718,,,N*4C
$GPVTG,P,161730.313,,,,,0,00,,,M,,M,,*7B
$GPGSA,A,1,,,,,,,,,,,,,,,*1E
$GPRM$GA,16m:687,17170
m:682,-15403
m:646,-26616
m:578,-3866
m:690,1510
m:616,3581
m:564,9724
m:647,13612
m:569,26100
m:626,-22064
m:523,32471
m:588,-27156
m:603,-9011
m:483,-28916
m:513,22604
m:511,9862
m:568,-17742
m:542,1308
m:557,15666
m:531,-25900
m:516,-15299
m:410,-1351
m:450,-5460
m:508,-31718
m:401,-5611
m:460,14702
m:410,16135
m:451,13417
m:420,-1893
m:354,10886
m:332,-8044
m:322,21459
1731.313,,,,,0,00,,,M,,M,,*7A
$GPGSA,A,1,,,,,,,,,,,,,,,*1E
$G$GPGGA,161732.313,,,,,0,00,,,M,,M,,*79
$GPGSA,A,1,,,,,,,,,,,,,$GPGGA,161733.313,,,,,0,00,,,M,,M,,*78
$GPGSA,A,1,,,,,,,,,,,,,,,*1E
$GPRMC,161733.313,V,,,,,0.00,0.00,06$GPGGA,161734.313,,,,,0,00,,,M,,M,,*7F
$GPGSA,A,1,,,,,,,,,,,,,,5,01,,,36*78
$GPRMC,161734.313,V,,,,,0.00,0.00,060718,,,N*42
$GPVTG$GPGGA,161735.313,,,,,0,00,,,M,,M,,*7E
$GPGSA,A,1,,,,,,,,,,,,,m:309,17119
m:332,-22544
m:353,26254
m:363,-18037
m:385,-12163
m:397,-5033
m:406,-23664
m:393,18825
m:372,-9761
m:347,28436
m:363,26290
m:381,-8176
m:412,14854
m:404,-24177
m:409,-8103
m:384,-13998
m:369,21958
m:328,-2418
m:310,-11736
m:362,-3718
m:382,16142
m:327,-2494
m:348,-13458
m:350,-10915
m:308,2126
m:374,19716
m:334,-14490
m:361,-28334
m:287,9217
m:370,17405
m:310,15232
m:363,3534
$GPGGA,161736.104,,,,,0,00,,,M,,M,,*79
$GPGSA,A,1,,,,,,,,,,,,,$GPGGA,161737.104,,,,,0,00,,,M,,M,,*78
$GPGSA,A,1,,,,,,,,,,,,,$GPGGA,161738.104,,,,,0,00,,,M,,M,,*77
$GPGSA,A,1,,,,,,,,,,,,,$GPGGA,161739.104,,,,,0,00,,,M,,M,,*76
$GPGSA,A,1,,,,,,,,,,,,,,,*1E
$GPGSV,2,1,m:289,-29116
m:355,-9333
m:308,-27951
m:334,-15538
m:316,13878
m:339,2046
m:339,-1375
m:280,-14681
m:349,-2553
m:310,15380
m:299,28628
m:339,27586
m:292,19930
m:313,-3368
m:314,-31488
m:289,17796
m:348,18900
m:296,-24754
m:292,-10609
m:315,25576
m:334,-20144
m:288,19347
m:294,-16454
m:337,-4918
m:335,-7236
m:273,-9934
m:300,-30218
m:284,-27315
m:317,-27310
m:309,-31871
m:312,9371
m:294,-4619
$GPGGA,161740.104,,,,,0,00,,,M,,M,,*78
$GPGSA,A,1,,,,,,,,,,,,,$GPGGA,161741.104,,,,,0,00,,,M,,M,,*79
$GPGSA,A,1,,,,,,,,,,,,,*
$GPRMC,161741.104,V,,,,,0.00,0.00,060718,,,N*44
$GPVTG,0.00,T,,M,0.$GPGGA,161742.092,,,,,0,00,,,M,,M,,*74
$GPGSA,A,1,,,,,,,,,,,,,$GPGGA,161742.311,,,,,0,00,,,M,,M,,*7C
$GPGSA,A,1,,,,,,,,,,,,,$GPGGA,161743.311,,,,,0,00,,,M,,M,,*7D
$GPGSA,A,1,,,,,,,,,,,,,V1,06,2m:268,-1858
m:293,-14546
m:274,16500
m:273,-5908
m:271,17496
m:264,11910
m:263,-26296
m:263,-26702
m:245,-14896
m:273,18174
m:274,-17301
m:287,-3576
m:292,-25334
m:279,570
m:263,-6700
m:248,13462
m:275,16128
m:274,-23752
m:233,26324
m:240,-18150
m:274,-29814
m:258,-12838
m:253,-26440
m:255,14619
m:267,23305
m:244,-13034
m:255,-17706
m:241,-2176
m:247,-2716
m:267,-18687
m:220,11624
m:261,2122
7,,,22,08,,,18,32,,,17,14,,,16*7D
$GPGSV,2,2,06,01,,,37,28,,,37311,,,,,0,00,,,M,,M,,*7A
$GPGSA,A,1,,,,,,,,,,,,,,,*1E
$GPRMC,16174$GPGGA,161745.311,,,,,0,00,,,M,,M,,*7B
$GPGSA,A,1,,,,,,,,,,,,,,718,,,N*46
$GPVTG,0.00,T,,M,0.00,N,0.00,K,N*32
$GPGGA,161746.311,,,,,0,00,,,M,,M,,*78
$GPGSA,A,1,,,,,,,,,,,,,$GPGGA,161747.311,,,,,0,00,,,M,,M,,*79
$GPGSA,A,1,,,,,,,,,,,,,.06071m:243,14344
m:236,-17144
m:228,-17188
m:246,12950
m:227,25101
m:246,6529
m:213,-21323
m:208,-1070
m:149,-19873
m:138,-2474
m:139,-27130
m:125,-2
m:148,32454
m:131,-17072
m:120,16808
m:108,-827
m:92,6773
m:81,-10838
m:101,28732
m:105,1288
m:109,-9671
m:114,-14607
m:109,16956
m:94,2436
m:89,-19486
m:117,3051
m:90,-17018
m:97,25382
m:91,32498
m:94,25481
m:87,1160
m:81,17813
8,,,N*44
$GPVTG,0.00,T,,M,0.00,N,0.00,K,N*32
$GPGGA,161748.09$GPGGA,161749.092,,,,,0,00,,,M,,M,,*7F
$GPGSA,A,1,,,,,,,,,,,,,$GPGGA,161750.092,,,,,0,00,,,M,,M,,*77
$GPGSA,A,1,,,,,,,,,,,,,$GPGGA,161751.092,,,,,0,00,,,M,,M,,*76
$GPGSA,A,1,,,,,,,,,,,,,m:98,-30926
m:66,20853
m:85,21967
m:71,10510
m:99,6641
m:80,16272
m:88,-18847
m:84,-13492
m:105,-3818
m:106,-12018
m:111,-28061
m:104,189
m:116,2711
m:117,-19617
m:115,28720
m:101,21060
m:111,-32001
m:83,-12924
m:100,-2406
m:88,-21031
m:88,-22343
m:88,-1580
m:81,-6922
m:84,-9399
m:80,-17421
m:75,10773
m:69,7922
m:75,-530
m:78,-25334
m:89,-9160
m:87,29950
m:89,-14561
$GPGGA,161752.092,,,,,0,00,,,M,,M,,*75
$GPGSA,A,1,,,,,,,,,,,,,$GPGGA,161753.092,,,,,0,00,,,M,,M,,*74
$GPGSA,A,1,,,,,,,,,,,,,$GPGGA,161754.090,,,,,0,00,,,M,,M,,*71
$GPGSA,A,1,,,,,,,,,,,,,$GPGGA,161755.309,,,,,0,00,,,M,,M,,*73
$GPGSA,A,1,,,,,,,,,,,,,m:86,-8228
m:72,-24892
m:79,-18827
m:78,-22432
m:63,-31574
m:70,29918
m:66,23828
m:67,30092
m:64,11061
m:71,11352
m:68,15866
m:70,3474
m:71,-16068
m:80,26490
m:68,20502
m:61,9626
m:87,-24168
m:77,13375
m:74,-2100
m:80,1028
m:83,-22331
m:61,25057
m:53,29160
m:65,-29494
m:73,-26066
m:110,-12970
m:103,-22969
m:83,12908
m:81,16613
m:75,24033
m:95,-13192
m:83,-6386
$GPGGA,161756.309,,,,,0,00,,,M,,M,,*70
$GPGSA,A,1,,,,,,,,,,,,,$GPGGA,161757.309,,,,,0,00,,,M,,M,,*71
$GPGSA,A,1,,,,,,,,,,,,,$GPGGA,161758.309,,,,,0,00,,,M,,M,,*7E
$GPGSA,A,1,,,,,,,,,,,,,$GPGGA,161759.309,,,,,0,00,,,M,,M,,*7F
$GPGSA,A,1,,,,,,,,,,,,,m:82,24086
m:81,-2034
m:84,18878
m:89,30702
m:79,-6965
m:102,278
m:96,18776
m:92,-6472
m:97,16096
m:94,-30324
m:104,24177
m:95,-1835
m:103,-8899
m:92,-12886
m:100,-18040
m:98,-20012
m:101,-19120
m:88,1905
m:95,15099
m:103,30993
m:103,-25264
m:96,23724
m:100,12719
m:2196,2195
m:2196,2195
m:98,-1
m:-2438,-1
m:104,2676
m:92,5718
m:88,26560
m:94,13910
m:95,-5465
$GPGGA,161800.088,,,,,0,00,,,M,,M,,*76
$GPGSA,A,1,,,,,,,,,,,,,$GPGGA,161801.309,,,,,0,00,,,M,,M,,*7D
$GPGSA,A,1,,,,,,,,,,,,,$GPGGA,161802.309,,,,,0,00,,,M,,M,,*7E
$GPGSA,A,1,,,,,,,,,,,,,m:96,-1
m:-12210,-1
m:98,-6456
m:90,-269
m:113,4266
m:92,3102
m:105,7403
m:97,-8992
m:96,-21420
m:101,29280
m:110,26209
m:88,16295
m:95,10258
m:115,-32476
m:105,-7494
m:95,-26248
m:103,-5065
m:107,-17245
m:101,12859
m:90,-16159
m:97,-11618
m:104,-23938
m:2196,2195
m:178,-6355
m:107,13333
m:104,28286
m:102,-25544
m:100,-10765
m:94,-17007
m:95,8906
m:99,-26131
m:85,15058
$GPGGA,161803.309,,,,,0,00,,,M,,M,,*7F
$GPGSA,A,1,,,,,,,,,,,,,$GPGGA,161804.309,,,,,0,00,,,M,,M,,*78
$GPGSA,A,1,,,,,,,,,,,,,$GPGGA,161805.309,,,,,0,00,,,M,,M,,*79
$GPGSA,A,1,,,,,,,,,,,,,$GPGGA,161806.088,,,,,0,00,,,M,,M,,*70
$GPGSA,A,1,,,,,,,,,,,,,N
$GPGGA,161806.309,,,,,0,00,,,M,,M,,*7A
$GPGSA,A,1,,,,,,,,,,,,,,,*1E
$GPRMC,161806.309,V$GPGGA,161807.309,,,,,0,00,,,M,,M,,*7B
$GPGSA,A,1,,,,,,,,,,,,,m:102,29710
m:84,-13036
m:110,24808
m:87,-24669
m:107,466
m:92,19901
m:95,-20820
m:90,-30684
m:83,728
m:93,-8184
m:67,-17408
m:2196,2195
m:2196,2195
m:83,28803
m:66,21618
m:60,19468
m:53,-5539
m:58,12456
m:56,-20201
m:55,26109
m:45,5679
m:44,-9572
m:40,-14523
m:49,4391
m:43,-482
m:49,16960
m:54,13441
m:34,26932
m:43,-16152
m:37,-6034
m:46,9282
m:48,29248
$GPGGA,161808.309,,,,,0,00,,,M,,M,,*74
$GPGSA,A,1,,,,,,,,,,,,,,.00,0.00,060718,,,N*49
$GPVTG,0.00,T,,M,0.00,N,0.00,K,N*32
$GPGGA,161809.309,,,,,0,00,,,M,,M,,*75
$GPGSA,A,1,,,,,,,,,,,,,$GPGGA,161810.309,,,,,0,00,,,M,,M,,*7D
$GPGSA,A,1,,,,,,,,,,,,,TM,0.00,N,0.00,K,N*32
$GPGGA,161811.309,,,,,0,00,,,M,,M,,*7C
$GPGSA,A,1,,,,,,,,,,,,,m:39,13782
m:35,-31908
m:45,25110
m:54,-9664
m:45,498
m:41,-2476
m:44,23811
m:47,25540
m:57,11302
m:51,-11960
m:42,-19947
m:50,2099
m:52,7811
m:41,-9846
m:56,14436
m:44,241
m:41,-14887
m:51,-10648
m:44,8837
m:51,4336
m:55,4250
m:35,30919
m:50,-1721
m:65,-31374
m:45,-7336
m:37,-23339
m:41,-22440
m:46,20263
m:48,5124
m:44,7384
m:41,-31334
m:44,-28691
$GPGGA,161812.092,,,,,0,00,,,M,,M,,*7E
$GPGSA,A,1,,,,,,,,,,,,,$GPGGA,161813.092,,,,,0,00,,,M,,M,,*7F
$GPGSA,A,1,,,,,,,,,,,,,$GPGGA,161814.092,,,,,0,00,,,M,,M,,*78
$GPGSA,A,1,,,,,,,,,,,,,,E
$GPRMC,161814.092,V,,,,,0.00,0.00,060718,,,N*45
$GPVTG,0.00,T,,M,$GPGGA,161815.092,,,,,0,00,,,M,,M,,*79
$GPGSA,A,1,,,,,,,,,,,,,GPRMC,161815m:43,-10852
m:50,25931
m:53,5309
m:65,27537
m:62,19813
m:67,30176
m:60,-29712
m:61,26337
m:55,-20337
m:52,-192
m:59,26580
m:60,-19898
m:58,-30040
m:48,-30680
m:63,-28664
m:73,-7928
m:71,-24055
m:71,-22321
m:91,-21014
m:119,-2368
m:130,-23000
m:113,-4138
m:107,-11333
m:128,7979
m:129,26202
m:113,22041
m:120,32398
m:127,-15484
m:134,3534
m:143,-23875
m:158,-344
m:155,-32311
.092,V,,,,,0.00,0.00,060718,,,N*44
$GPVTG,0.00,T,,M,0.00,N,0.0,,0.00,0.00,060718,,,N*47
$GPVTG,0.00,T,,M,0.00,N,0.00,K,N*32
$GPGGA,161817.092,,,,,0,00,,,M,,M,,*7B
$GPGSA,A,1,,,,,,,,,,,,,$GPGGA,161818.092,,,,,0,00,,,M,,M,,*74
$GPGSA,A,1,,,,,,,,,,,,,GSA,A,1,,,,,,,,,,,,,,,*1E
$GPRMC,161818.302,V,,,,,0.00,0.00,060718,,,$GPGGA,161819.302,,,,,0,00,,,M,,M,,*7F
$GPGSA,A,1,,,,,,,,,,,,,7,,,17m:179,-7834
m:189,-21001
m:159,-26740
m:249,16028
m:273,-13992
m:280,17886
m:344,-20538
m:298,-17521
m:405,-23258
m:402,-10269
m:482,-8552
m:530,-3734
m:504,-28863
m:460,28318
m:466,26828
m:470,30271
m:518,30737
m:472,27502
m:397,-7853
m:421,-489
m:501,27405
m:468,-1892
m:483,7752
m:462,-26388
m:403,23816
m:361,5675
m:403,16988
m:327,-26484
m:314,-1588
m:288,19090
m:282,-22166
m:220,-2426
,01,,,20,11,,,30*7D
$GPRMC,161819.302,V,,,,,0.00,0.00,060718,,,1E
$GPRMC,161820.302,V,,,,,0.00,0.00,060718,,,N*48
$GPVTG,0.00,T,,$GPGGA,161821.302,,,,,0,00,,,M,,M,,*74
$GPGSA,A,1,,,,,,,,,,,,,,00,T,,M,0.00,N,0.00,K,N*32
$GPGGA,161822.302,,,,,0,00,,,M,,M,,*77
$GPGSA,A,1,,,,,,,,,,,,,$GPGGA,161823.302,,,,,0,00,,,M,,M,,*76
$GPGSA,A,1,,,,,,,,,,,,,m:195,-27792
m:182,6228
m:190,-20179
m:187,4318
m:174,14772
m:152,31619
m:168,31096
m:135,-25447
m:104,11142
m:132,12616
m:131,-21977
m:81,11907
m:117,17706
m:126,13950
m:86,7076
m:107,-2769
m:97,-13656
m:127,19812
m:89,23455
m:116,2205
m:109,27692
m:95,-22444
m:91,-6749
m:62,-5598
m:53,-32349
m:80,19430
m:49,-29010
m:39,27076
m:40,-26738
m:67,-28638
m:62,-603
m:55,-27268
$GPGGA,161824.102,,,,,0,00,,,M,,M,,*73
$GPGSA,A,1,,,,,,,,,,,,,$GPGGA,161825.102,,,,,0,00,,,M,,M,,*72
$GPGSA,A,1,,,,,,,,,,,,,$GPGGA,161826.102,,,,,0,00,,,M,,M,,*71
$GPGSA,A,1,,,,,,,,,,,,,,,*1E
$GPRMC,161826.102,V,,,,,0.00,0.00,060718,,,N*4C
$GPVTG$GPGGA,161827.102,,,,,0,00,,,M,,M,,*70
$GPGSA,A,1,,,,,,,,,,,,,,00,K,N*32
m:39,4389
m:26,-7800
m:21,5140
m:25,18114
m:30,12931
m:29,20846
m:24,-15126
m:26,-16006
m:44,-3964
m:85,16850
m:74,18433
m:80,-11571
m:42,19806
m:51,19148
m:79,-20580
m:79,7320
m:31,-8812
m:75,-130
m:81,-16277
m:75,20896
m:98,-29668
m:40,-27328
m:115,-10470
m:58,25922
m:129,-1212
m:89,-12418
m:134,-16138
m:133,-32208
m:108,26565
m:178,21528
m:133,25558
m:141,-12118
$GPGGA,161828.102,,,,,0,00,,,M,,M,,*7F
$GPGSA,A,1,,,,,,,,,,,,,$GPGGA,161829.102,,,,,0,00,,,M,,M,,*7E
$GPGSA,A,1,,,,,,,,,,,,,202,V,,,,,0.00,0.00,060718,,,N*43
$GPVTG,0.00,T,,M,0.00,N,0.00,K,N*3$GPGGA,161830.093,,,,,0,00,,,M,,M,,*7F
$GPGSA,A,1,,,,,,,,,,,,,$GPGGA,161831.093,,,,,0,00,,,M,,M,,*7E
$GPGSA,A,1,,,,,,,,,,,,,m:207,-15738
m:164,-23691
m:140,32698
m:186,-12252
m:203,24099
m:184,-18868
m:169,27778
m:155,-16080
m:169,28488
m:194,-5488
m:224,-24182
m:250,-22172
m:243,16263
m:225,-12025
m:226,-27980
m:225,11174
m:227,-3096
m:230,11688
m:259,-8623
m:271,-30129
m:280,-22235
m:249,-21624
m:237,-4748
m:221,9522
m:227,30872
m:211,-19903
m:242,-11978
m:302,-32350
m:247,31240
m:252,-21521
m:243,-12457
m:321,-17054
$GPGGA,161832.093,,,,,0,00,,,M,,M,,*7D
$GPGSA,A,1,,,,,,,,,,,,,$GPGGA,161833.093,,,,,0,00,,,M,,M,,*7C
$GPGSA,A,1,,,,,,,,,,,,,$GPGGA,161834.093,,,,,0,00,,,M,,M,,*7B
$GPGSA,A,1,,,,,,,,,,,,,$GPGGA,161835.093,,,,,0,00,,,M,,M,,*7A
$GPGSA,A,1,,,,,,,,,,,,,m:348,-28758
m:311,-30942
m:343,-7054
m:435,-13227
m:391,-5578
m:403,-2645
m:369,13118
m:435,-6498
m:395,-3000
m:354,-32002
m:437,1184
m:400,21431
m:375,10682
m:403,-24
m:419,-23356
m:456,-22932
m:356,25900
m:363,9441
m:458,-26477
m:432,20760
m:439,-3801
m:365,9573
m:373,-17704
m:475,13515
m:364,-20240
m:372,-7386
m:430,26249
m:381,9500
m:361,4332
m:329,18672
m:430,-24687
m:365,-16923
$GPGGA,161836.093,,,,,0,00,,,M,,M,,*79
$GPGSA,A,1,,,,,,,,,,,,,$GPGGA,161837.304,,,,,0,00,,,M,,M,,*75
$GPGSA,A,1,,,,,,,,,,,,,$GPGGA,161838.304,,,,,0,00,,,M,,M,,*7A
$GPGSA,A,1,,,,,,,,,,,,,$GPGGA,161839.304,,,,,0,00,,,M,,M,,*7B
$GPGSA,A,1,,,,,,,,,,,,,m:349,-16114
m:318,-5752
m:417,16476
m:341,3009
m:356,-13484
m:328,20729
m:419,8210
m:332,-11108
m:344,-1327
m:436,29348
m:335,-20374
m:346,-18361
m:434,22178
m:334,14130
m:346,-3065
m:447,27514
m:374,31474
m:335,20996
m:383,-7560
m:379,-13058
m:441,26650
m:358,-13245
m:326,13051
m:387,-31820
m:383,-11440
m:427,-18215
m:337,26562
m:342,17812
m:444,15015
m:356,3174
m:322,-24384
m:429,-15691
$GPGGA,161840.304,,,,,0,00,,,M,,M,,*75
$GPGSA,A,1,,,,,,,,,,,,,$GPGGA,161841.304,,,,,0,00,,,M,,M,,*74
$GPGSA,A,1,,,,,,,,,,,,,$GPGGA,161842.104,,,,,0,00,,,M,,M,,*75
$GPGSA,A,1,,,,,,,,,,,,,,,*1E
$GPRMC,161842.$GPGGA,161843.104,,,,,0,00,,,M,,M,,*74
$GPGSA,A,1,,,,,,,,,,,,,,5,10,,,28*73
$GPRMC,161843.104,V,,,,,0.00,0.00,060718,,,N*49
$GPVTG,0.00,$GPGGA,161844.104,,,,,0,00,,,M,,M,,*73
$GPGSA,A,1,,,,,,,,,,,,,m:333,32519
m:325,-18469
m:378,-16424
m:363,966
m:332,-3467
m:313,3698
m:343,-13157
m:389,-29355
m:298,14902
m:302,10936
m:307,-7840
m:286,-26185
m:324,-1364
m:368,-29094
m:338,6212
m:310,26397
m:278,18069
m:261,22110
m:255,29646
m:257,27449
m:256,-24132
m:275,25349
m:269,-24908
m:289,16090
m:303,-24983
m:294,-26757
m:275,-5209
m:239,12674
m:216,-4116
m:253,-26186
m:272,19697
m:241,17739
$GPGGA,161845.104,,,,,0,00,,,M,,M,,*72
$GPGSA,A,1,,,,,,,,,,,,,$GPGGA,161846.104,,,,,0,00,,,M,,M,,*71
$GPGSA,A,1,,,,,,,,,,,,,$GPGGA,161847.104,,,,,0,00,,,M,,M,,*70
$GPGSA,A,1,,,,,,,,,,,,,$GPGGA,161848.103,,,,,0,00,,,M,,M,,*78
$GPGSA,A,1,,,,,,,,,,,,,m:199,-7759
m:241,31897
m:245,-2791
m:189,17780
m:231,-10828
m:174,16466
m:214,-18201
m:157,-23276
m:200,-31438
m:150,21452
m:195,24259
m:191,-31667
m:193,28478
m:197,-28238
m:135,-3138
m:201,-24311
m:147,2283
m:197,-31318
m:184,24160
m:133,80
m:186,-23506
m:178,22340
m:132,-21709
m:178,-6770
m:176,-32452
m:130,-26354
m:181,-5146
m:170,30407
m:118,609
m:139,-6271
m:153,5396
m:145,-19230
$GPGGA,161849.103,,,,,0,00,,,M,,M,,*79
$GPGSA,A,1,,,,,,,,,,,,,$GPGGA,161850.103,,,,,0,00,,,M,,M,,*71
$GPGSA,A,1,,,,,,,,,,,,,$GPGGA,161851.103,,,,,0,00,,,M,,M,,*70
$GPGSA,A,1,,,,,,,,,,,,,$GPGGA,161852.103,,,,,0,00,,,M,,M,,*73
$GPGSA,A,1,,,,,,,,,,,,,m:110,11188
m:170,19903
m:157,-31851
m:149,-22928
m:124,-17709
m:211,27936
m:199,8564
m:225,29474
m:213,10422
m:219,13554
m:287,-18237
m:278,39
m:301,-2046
m:314,17052
m:276,-17653
m:289,12065
m:339,10338
m:383,-3653
m:386,23305
m:375,-26213
m:361,4952
m:381,11444
m:389,-4659
m:400,10502
m:393,14034
m:390,3487
m:390,-10326
m:381,-12944
m:413,-18994
m:423,256
m:427,15208
m:400,6228
$GPGGA,161853.103,,,,,0,00,,,M,,M,,*72
$GPGSA,A,1,,,,,,,,,,,,,$GPGGA,161854.093,,,,,0,00,,,M,,M,,*7D
$GPGSA,A,1,,,,,,,,,,,,,$GPGGA,161855.294,,,,,0,00,,,M,,M,,*79
$GPGSA,A,1,,,,,,,,,,,,,$GPGGA,161856.294,,,,,0,00,,,M,,M,,*7A
$GPGSA,A,1,,,,,,,,,,,,,m:341,-15458
m:394,5997
m:454,13922
m:419,-24652
m:459,18645
m:457,9340
m:358,-10847
m:463,17137
m:421,2734
m:451,-2195
m:409,31878
m:420,-7389
m:419,18873
m:423,-28166
m:362,-22815
m:461,-25635
m:396,23176
m:426,20915
m:455,3497
m:419,10409
m:454,-7859
m:476,-16084
m:427,23517
m:380,-25445
m:459,-13501
m:470,20002
m:444,-1349
m:414,20471
m:367,25139
m:398,12176
m:359,261
m:410,31026
$GPGGA,161857.294,,,,,0,00,,,M,,M,,*7B
$GPGSA,A,1,,,,,,,,,,,,,$GPGGA,161858.294,,,,,0,00,,,M,,M,,*74
$GPGSA,A,1,,,,,,,,,,,,,$GPGGA,161859.294,,,,,0,00,,,M,,M,,*75
$GPGSA,A,1,,,,,,,,,,,,,$GPGGA,161900.087,,,,,0,03,,,M,,M,,*7B
$GPGSA,A,1,,,,,,,,,,,,,PC,161900.087,V,,,,,4.35,318.43,060718,,,N*4A
$GPVTG,318.43,T,,M,4.3m:393,-30775
m:422,16592
m:389,-12933
m:413,8108
m:364,-20879
m:375,16212
m:333,8902
m:382,-2520
m:396,-9394
m:440,-27472
m:467,-20686
m:387,17551
m:385,542
m:415,-6393
m:439,14246
m:380,629
m:354,13624
m:423,-10410
m:383,24972
m:385,-17206
m:406,20540
m:363,-16267
m:426,5884
m:320,26842
m:416,-13596
m:341,20542
m:405,-17168
m:305,-12865
m:353,-28689
m:354,16819
m:316,-24578
m:360,-19413
$GPGGA,161902.000,,,,,0,03,,,M,,M,,*76
$GPGSA,A,1,,,,,,,,,,,,,$GPGGA,161903.000,5132.4121,N,00000.5355,W,1,03,3.50,104.3,M,47$GPGGA,161904.000,5132.4156,N,00000.5393,W,1,03,3.50,104.6,M,47$GPGGA,161905.000,5132.4193,N,00000.5428,Wm:302,12485
m:276,-13784
m:293,23180
m:346,-20720
m:283,6904
m:266,-32732
m:291,-5392
m:303,1753
m:305,12769
m:264,28972
m:247,15146
m:225,-17529
m:227,22388
m:262,-5753
m:273,-14898
m:301,-29157
m:292,23880
m:257,22300
m:236,490
m:277,-29411
m:250,19289
m:247,-16524
m:237,23374
m:235,-7394
m:186,20410
m:205,-30976
m:157,25301
m:186,-10306
m:178,-28955
m:190,-13370
m:162,-23870
m:176,4668
,1,03,3.50,103.8,M,47.0,M,,*79
$GPGSA,A,2,27,08,32,,,,,,,,,,3.$GPGGA,161906.000,5132.4226,N,00000.5463,W,1,03,3.50,104.1,M,47,906.215,A,5132.4232,N,00000.5476,W,11.91,327.48,060718,,,A*4B
$GPVTG,327.48$GPGGA,161908.000,5132.4280,N,00000.5547,W,1,03,3.51,104.4,M,470,A,5132.4280,N,00000.5547,W,13.62,313.65,060718,,,A*4F
$GPVTG,313.6$GPGGA,161909.000,5132.4303,N,00000.5601,W,1,03,3.50,104.7,M,47,,15.47m:168,-30601
m:166,-13024
m:190,-13729
m:215,-5665
m:195,-30323
m:175,30106
m:160,-16073
m:145,-1282
m:139,-32372
m:139,32762
m:133,-6951
m:169,-23029
m:166,13668
m:173,17924
m:181,-12416
m:173,27457
m:164,10906
m:163,-2064
m:153,-1260
m:159,13943
m:159,24358
m:158,-29292
m:146,2850
m:151,-4612
m:160,-7376
m:142,14828
m:165,-32298
m:147,18612
m:150,-29488
m:166,20588
m:191,-1215
m:216,21124
,N,28.66,K,A*31
$GPGGA,161910.000,5132.4325,N,00000.5657,W,1,0.5,N,00000.5657,W,14.50,305.17,060718,,,A*4E
$GPVTG,305.17,T,,M,14.50,N,$GPGGA,161911.000,5132.4348,N,00000.5713,W,1,03,3.50,105.0,M,47$GPGGA,161912.000,5132.4370,N,00000.5770,W,1,03,3.50,105.2,M,470$GPVTG,301.08,T,,M,14.16,N,26.24,K,A*37
$GPGGA,161912.215,5132.4374,m:184,-4252
m:213,-30906
m:202,8289
m:212,22262
m:199,-16631
m:209,-31739
m:210,28202
m:193,-14139
m:197,-26336
m:197,-18423
m:190,14346
m:185,6408
m:221,8848
m:216,-370
m:205,15747
m:205,1180
m:224,7646
m:247,32355
m:241,-29608
m:235,8081
m:250,-8608
m:261,-1932
m:276,30496
m:272,-4268
m:284,8482
m:267,-5942
m:262,27612
m:232,8704
m:217,-23488
m:208,-18264
m:223,9682
m:244,-32466
$GPGGA,161914.000,5132.4412,N,00000.5882,W,1,03,3.50,105.6,M,47$GPGGA,161915.000,5132.4435,N,00000.5940,W,1,03,3.51,105.8,M,47$GPGGA,161916.000,5132.4462,N,00000.6000,W,1,03,3.50,106.0,M,47$GPGGA,161917.000,5132.4488,N,00000.6059,W,1,03,3.50,106.2,M,47m:261,21591
m:275,-20672
m:260,12284
m:255,22075
m:251,1740
m:228,12100
m:230,24431
m:224,8623
m:236,7536
m:247,-22713
m:236,-32318
m:235,29750
m:207,-25075
m:209,-32372
m:235,-19594
m:262,14847
m:294,-3128
m:285,20583
m:275,23549
m:268,-30542
m:319,20456
m:302,-11840
m:284,16279
m:245,10475
m:273,-13860
m:306,-18410
m:300,8982
m:261,-14611
m:282,4970
m:300,23125
m:275,-22580
m:241,-13227
$GPGGA,161918.000,5132.4512,N,00000.6118,W,1,03,3.50,106.4,M,475,303.98,060718,,,A*44
$GPVTG,303.98,T,,M,15.59,N,28.90,K,A*37
$GPGGA,161920.000,5132.4560,N,00000.6223,W,1,03,3.50,106.8,M,47$GPGGA,161921.000,5132.4585,N,00000.6235,W,1,03,3.50,107.0,M,47m:288,-31208
m:302,13301
m:262,4252
m:264,-1674
m:302,-408
m:253,25590
m:245,-14672
m:291,26242
m:283,-12353
m:254,-18778
m:296,-17507
m:255,11132
m:238,-9379
m:293,19843
m:259,-23655
m:286,4142
m:295,25798
m:287,19423
m:256,-17264
m:251,12062
m:269,-23751
m:290,19871
m:312,-25230
m:322,2860
m:328,-21996
m:323,15284
m:345,-10216
m:339,32286
m:337,-5612
m:347,19667
m:326,-30480
m:317,171
$GPGGA,161922.000,5132.4597,N,00000.6301,W,1,03,3.50,107.2,M,4768,,,A*40
$GPVTG,299.42,T,,M,14.40,N,26.69,K,A*33
$GPGGA,161923.000,5132.4622,N,00000.6355,W,1,03,3.50,107.3,M,47$GPGGA,161924.000,5132.4641,N,00000.6413,W,1,03,3.49,107.5,M,47W.29,296.57,060718,,,A*45
$GPVTG,296.57,T,,M,14.29,N,26.47,K,A*3B
m:314,-18648
m:325,-3454
m:350,7690
m:353,-1269
m:325,-3026
m:297,-10709
m:294,12548
m:319,-23607
m:343,8125
m:350,-815
m:304,8401
m:302,25943
m:336,-23686
m:364,14176
m:348,10745
m:315,-7386
m:279,15097
m:306,-8777
m:348,12133
m:323,8930
m:295,16324
m:337,-30301
m:298,8588
m:284,4820
m:312,14272
m:274,-24568
m:312,-28663
m:280,25369
m:320,7028
m:292,32302
m:290,16296
m:333,25852
$GPGGA,161926.000,5132.4679,N,00000.6535,W,1,03,3.50,107.8,M,47$GPGGA,161927.000,5132.4695,N,00000.6597,W,1,03,3.50,108.0,M,47$GPGGA,161928.000,5132.4714,N,00000.6653,W,1,03,3.50,108.2,M,47,3
$GPGSA,A,2,27,08,32,,,,,,,,,,3.64,3.50,1.00*09
$GPRMC,161928.000,$GPGGA,161929.000,5132.4734,N,00000.6710,W,1,03,3.49,108.4,M,470.6710,W,14.79,299.45,060718,,,A*49
$GPVTG,299.45,T,,M,14.79,N,27.41,m:248,-6920
m:305,7302
m:298,32478
m:302,-31266
m:325,-21760
m:273,-10690
m:316,19692
m:337,27246
m:308,32632
m:321,-27714
m:369,-19986
m:288,-2967
m:307,-9743
m:321,26967
m:280,-16000
m:317,-11729
m:279,-489
m:299,-29879
m:317,11552
m:294,-24752
m:268,-12911
m:246,15771
m:284,-5316
m:278,-24729
m:262,11857
m:281,-464
m:248,16394
m:284,-3498
m:244,29720
m:224,16854
m:251,-12572
m:271,30128
$GPGGA,161930.000,5132.4756,N,00000.6776,W,1,03,3.49,105.6,M,47$GPGGA,161932.000,5132.4798,N,00000.6887,W,1,03,3.49,106.0,M,4764,,,32*42
$GPGSV,2,2,07,18,,,27,10,,,30,22,,,20*72
$GPRMC,161932.00$GPGGA,161933.000,5132.4816,N,00000.6941,W,1,03,3.49,106.1,M,47m:230,-14392
m:225,-3992
m:278,-25022
m:243,13256
m:256,-5060
m:274,10783
m:249,-5468
m:281,21779
m:232,5806
m:276,-29452
m:245,-5325
m:278,-28421
m:241,3270
m:292,-13684
m:258,8380
m:293,-16667
m:268,30774
m:250,25220
m:301,25587
m:273,-13143
m:261,1470
m:296,-30764
m:257,10192
m:244,26017
m:309,23617
m:334,26522
m:298,-72
m:286,-18141
m:329,-12218
m:336,18362
m:295,24745
m:267,-9016
$GPGGA,161934.000,5132.4837,N,00000.6994,W,1,03,3.49,106.3,M,47$GPGGA,161935.000,5132.4856,N,00000.7045,W,1,03,3.49,106.5,M,47$GPGGA,161936.000,5132.4877,N,00000.7100,W,1,03,3.49,106.7,M,470,*75
$GPGSA,A,2,27,08,32,,,,,,,,,,3.63,3.49,1.00*06
$GPGSV,2,1,08,m:283,1850
m:324,25194
m:342,19662
m:346,5961
m:332,655
m:314,-29390
m:307,7084
m:307,31324
m:302,-25048
m:306,-13430
m:308,-10909
m:314,-24585
m:324,-23671
m:315,1592
m:351,12533
m:354,14127
m:345,-3708
m:323,-10503
m:283,30199
m:280,-14167
m:287,23642
m:322,-6762
m:343,-9038
m:310,10629
m:355,19854
m:307,-973
m:362,-23921
m:333,-12828
m:311,13562
m:254,17440
m:315,1795
m:351,1095
$GPGGA,161938.000,5132.4916,N,00000.7211,W,1,03,3.49,107.1,M,47$GPGGA,161939.000,5132.4939,N,00000.7256,W,1,03,3.49,107.3,M,47$GPGGA,161940.000,5132.4973,N,00000.7285,W,1,03,3.49,107.5,M,47$GPGGA,161941.000,5132.5015,N,00000.7293,W,1,03,3.50,107.7,M,47m:317,30815
m:282,-4264
m:305,31961
m:311,26957
m:313,16324
m:305,14476
m:297,7408
m:280,-17248
m:280,6600
m:286,-776
m:285,28014
m:277,30984
m:244,-9910
m:234,13201
m:247,-23477
m:260,13127
m:237,-18868
m:216,-15909
m:261,-32544
m:213,19750
m:244,7564
m:199,18926
m:225,21937
m:239,-20113
m:187,25936
m:227,15348
m:233,2360
m:209,-4563
m:218,-15576
m:209,3513
m:205,-17528
m:230,-22344
$GPGGA,161942.000,5132.5052,N,00000.7282,W,1,03,60.79,107.9,M,4$GPGGA,161944.000,5132.5102,N,00000.7230,W,1,03,60.81,108.2,M,4$GPGGA,161945.000,5132.5131,N,00000.7186,W,1,03,3.49,108.4,M,47$GPGGA,161946.000,5132.5159,N,00000.7141,W,1,03,3.49,108.6,M,47,63,3.49,1.00*m:217,-20792
m:197,29640
m:217,-30245
m:206,-26857
m:214,-3208
m:214,12135
m:211,-18674
m:250,20820
m:190,4107
m:230,-16752
m:201,15030
m:230,-8507
m:196,-22024
m:206,-5656
m:227,24454
m:191,20084
m:199,-20030
m:187,-28372
m:234,24705
m:205,7742
m:184,12722
m:213,18338
m:225,-2764
m:182,-2467
m:188,-23472
m:196,-21020
m:215,-21006
m:212,-2229
m:179,11540
m:193,3611
m:213,11920
m:214,-2150
06
$GPRMC,161946.000,A,5132.5159,N,00000.7141,W,12.87,46.28,060.7096,W,1,03,3.49,108.8,M,47.0,M,,*7E
$GPGSA,A,2,27,08,32,,,,,,,,,,$GPGGA,161948.000,5132.5204,N,00000.7046,W,1,03,3.49,109.0,M,47P,161948.000,A,5132.5204,N,00000.7046,W,12.99,52.55,060718,,,A*70
$G$GPGGA,161950.000,5132.5235,N,00000.6953,W,1,03,3.49,109.4,M,47*
m:205,12852
m:181,-5984
m:204,13402
m:206,19960
m:217,24354
m:214,-7896
m:203,30658
m:203,27918
m:176,-10932
m:214,-31229
m:217,19344
m:210,19042
m:224,-10776
m:187,-21820
m:205,-2730
m:183,7920
m:197,-9268
m:189,-381
m:211,9557
m:201,-12893
m:214,-4455
m:201,29606
m:201,-31114
m:210,-444
m:219,30770
m:193,-11579
m:199,17216
m:170,76
m:188,14438
m:162,-29392
m:175,-24289
m:176,14361
$GPGGA,161951.000,5132.5249,N,00000.6899,W,1,03,3.49,109.6,M,472,61.40,060718,,,A*78
$GPVTG,61.40,T,,M,12.17,N,22.55,K,A*0B
$GPGGA,161952.000,5132.5260,N,00000.6849,W,1,03,3.49,109.8,M,472GPRMC,161952.000,A,5132.5260,N,00000.6849,W,11.82,63.27,060718,,,A*71$GPGGA,161953.000,5132.5225,N,00000.6783,W,1,03,3.49,110.0,M,47$GPGGA,161954.000,5132.5195,N,00000.6714,W,1,03,3.49,110.3,M,470,,,A*4A
$Gm:187,-18292
m:203,-4734
m:188,-7260
m:187,-26788
m:162,4959
m:185,-15212
m:186,25040
m:179,18559
m:175,-27865
m:168,-4761
m:175,13246
m:169,-20303
m:146,-26725
m:173,20484
m:183,-16764
m:148,16134
m:176,30010
m:163,-25884
m:141,-124
m:157,-25933
m:150,-7303
m:142,-23277
m:163,-15924
m:153,-23020
m:143,9295
m:142,16554
m:163,-11381
m:158,-2157
m:134,-29745
m:164,10107
m:139,20515
m:162,-6687
PVTG,129.41,T,,M,16.46,N,30.50,K,A*31
$GPGGA,161956.000,5132.4891,N,00000.7032,W,1,05,1.51,-19.6,M,4710,,,1.80,1.51,0.98*02
$GPRMC,161956.000,A,5132.4891,N,00000.7032,W,15$GPGGA,161957.000,5132.4864,N,00000.6976,W,1,05,1.51,-19.8,M,4739,098,18,33,29,199,,14,,,19,18,,,18*7D
$GPGSV,3,3,11,01,,,38,22,,,2$GPGGA,161958.000,5132.4839,N,00000.6922,W,1,05,1.51,-20.8,M,47m:141,-25222
m:156,7096
m:137,626
m:162,-11928
m:113,11349
m:141,-7058
m:137,-16825
m:140,577
m:137,17608
m:124,-13230
m:130,-26498
m:131,-15881
m:135,8875
m:136,-27764
m:120,24369
m:113,3896
m:127,31970
m:124,-27602
m:117,706
m:112,-4044
m:108,13320
m:97,6111
m:107,-1062
m:120,31320
m:101,22050
m:68,-20854
m:119,-804
m:111,24605
m:108,-30584
m:114,-4073
m:137,-17495
m:120,14392
$GPGGA,161959.000,5132.4814,N,00000.6873,W,1,05,1.51,-21.9,M,47$GPGGA,162000.000,5132.4787,N,00000.6819,W,1,05,1.51,-22.9,M,47$GPGGA,162001.000,5132.4760,N,00000.6748,W,1,06,1.52,-23.5,M,47$GPGGA,162002.000,5132.4713,N,00000.6662,W,1,07,1.37,-23.5,M,47P,127.10,T,,M,19.90,N,36.87,K,A*33
m:120,-9942
m:110,9564
m:106,318
m:117,2764
m:116,-3610
m:129,30284
m:98,23739
m:111,8870
m:107,9172
m:115,12174
m:96,-1465
m:113,26650
m:82,-6162
m:98,-6380
m:78,26940
m:88,12976
m:84,32636
m:97,-21811
m:88,16131
m:108,29810
m:98,13502
m:119,-8400
m:99,-8141
m:100,-3301
m:93,29965
m:99,-22893
m:102,6245
m:104,-11610
m:94,25636
m:90,29641
m:113,32346
m:113,-28133
$GPGGA,162003.000,5132.4669,N,00000.6588,W,1,07,1.23,-24.2,M,47$GPGGA,162004.000,5132.4634,N,00000.6518,W,1,07,1.23,-25.0,M,47$GPGGA,162005.000,5132.4604,N,00000.6452,W,1,07,1.23,-25.9,M,47$GPGGA,162006.000,5132.4578,N,00000.6387,W,1,07,1.23,-26.9,M,47.0,M,,*68
$GPGSA,A,3,27,08,32,01,11,10,28,,,,,,1.55$GPGGA,162007.000,5132.4552,N,00000.6317,W,1,07,1.23,-27.9,M,471,08,71m:101,-9080
m:107,-5234
m:99,-10188
m:107,12430
m:104,20783
m:97,-13418
m:102,-32278
m:88,-24738
m:47,-7468
m:39,25650
m:42,19600
m:39,-22758
m:48,-11621
m:44,3446
m:50,-16785
m:41,-13281
m:36,-30148
m:37,16804
m:45,-17804
m:53,27624
m:47,-20464
m:42,-18366
m:46,28950
m:62,-26463
m:40,-2660
m:44,7612
m:44,29536
m:56,18256
m:40,-9939
m:62,31423
m:54,-1047
m:51,-15089
,168,16,11,57,282,16,01,45,271,17,10,35,054,17*72
$GPGSV,3,2,1PGSA,A,3,27,08,32,01,11,10,28,,,,,,1.55,1.23,0.94*08
$GPRMC,162008.$GPGGA,162009.000,5132.4488,N,00000.6201,W,1,07,1.23,-29.5,M,47,.39,126.73,060718,,,A*45
$GPVTG,126.73,T,,M,17.39,N,32.23,K,A*30
$GPGGA,162010.000,5132.4455,N,00000.6138,W,1,07,1.37,-29.9,M,47$GPGGA,162011.000,5132.4427,N,00000.6075,W,1,07,1.37,-30.5,M,47m:35,3885
m:47,2125
m:41,13248
m:49,-26166
m:42,-17132
m:35,29417
m:40,2614
m:44,6886
m:39,27567
m:40,-12732
m:40,8522
m:54,26400
m:28,-2471
m:38,30654
m:59,6332
m:42,17318
m:40,-5386
m:49,-16056
m:57,8520
m:73,-5321
m:55,18542
m:77,-23953
m:78,18054
m:80,16785
m:77,-29345
m:71,-5783
m:73,25933
m:92,-23759
m:86,7339
m:83,32142
m:95,-23879
m:95,-11540
$GPGGA,162012.000,5132.4399,N,00000.6011,W,1,07,1.37,-31.0,M,47,29,098,22,37,27,153,*71
$GPGSV,3,3,11,14,,,15,18,,,20,22,,,14*76
$$GPGGA,162013.000,5132.4375,N,00000.5942,W,1,07,1.37,-31.5,M,47$GPGGA,162014.000,5132.4354,N,00000.5871,W,1,07,1.37,-31.9,M,47m:97,1121
m:74,-12883
m:89,-12606
m:76,-25311
m:79,-1318
m:89,-606
m:92,-9890
m:86,20244
m:92,-13468
m:99,-32330
m:95,18392
m:92,-7788
m:84,-16233
m:94,-7960
m:103,-25933
m:103,-11445
m:86,-10201
m:92,-10622
m:81,28357
m:2196,2195
m:2196,2195
m:86,12050
m:91,-14178
m:2196,2195
m:101,-18686
m:96,-23892
m:92,5603
m:99,-26928
m:92,-4850
m:105,24528
m:102,31866
m:-158,-1
$GPGGA,162015.000,5132.4333,N,00000.5802,W,1,07,1.37,-32.3,M,47$GPGGA,162016.000,5132.4315,N,00000.5732,W,1,07,1.37,-32.7,M,47$GPGGA,162017.000,5132.4298,N,00000.5661,W,1,06,2.18,-33.1,M,47$GPGGA,162018.000m:3328,-43
m:114,-15414
m:102,29484
m:106,-23380
m:109,-1
m:-32272,-1
m:112,-31887
m:97,-3920
m:97,8863
m:108,26664
m:112,-14760
m:105,-28476
m:2196,2195
m:2196,2195
m:114,-1
m:-17162,-1
m:94,16742
m:109,12473
m:115,-18024
m:112,-28710
m:109,20644
m:103,-11310
m:109,-18764
m:92,-8904
m:100,11467
m:2196,2195
m:2196,2195
m:99,32344
m:120,18960
m:102,-11068
m:119,-6736
m:108,-3133
,5132.4280,N,00000.5590,W,1,07,1.23,-33.3,M,47.0,M,,*6A
$GPGSA$GPGGA,162019.000,5132.4266,N,00000.5517,W,1,07,1.37,-33.4,M,47$GPGGA,162020.000,5132.4250,N,00000.5447,W,1,07,1.37,-33.6,M,47.0,M,,*67
$GPGSA,A,3$GPGGA,162021.000,5132.4233,N,00000.5377,W,1,07,1.37,-33.7,M,47*
$GPRMC,162021.000,A,5132.4233,N,00000.5377,W,16.84,113.15,060718,,,$GPGGA,162022.000,5132.4216,N,00000.5309,W,1,07,1.37,-33.8,M,4717,35,141,22m:124,-28800
m:133,-13959
m:134,-5703
m:152,-21502
m:126,-4603
m:144,-5613
m:140,16683
m:124,-31183
m:149,-5884
m:137,8971
m:122,-21814
m:131,5607
m:116,-19065
m:128,4894
m:133,6857
m:133,17908
m:126,-30361
m:151,-28274
m:132,-4181
m:126,-12536
m:135,18253
m:141,-10111
m:134,-11727
m:132,-17838
m:122,24115
m:143,13451
m:127,-19256
m:148,-15548
m:132,-16702
m:114,3470
m:125,-18734
m:127,-14823
,32,30,098,24,28,29,310,34,39,26,149,*7C
$GPGSV,3,3,11,14,,,1705132.4198,N,00000.5W,16.44,114.94,060718,,,A*4E
$GPVTG,114.94,T,,M,16.44,N,30.47,K,A*33$GPGGA,162024.000,5132.4179,N,00000.5178,W,1,07,1.37,-33.6,M,47$GPGGA,162025.000,5132.4158,N,00000.5116,W,1,07,1.37,-33.4,M,47$GPGGA,162026.000,5132.4133,N,00000.5061,W,1,07,1.37,-33.3,M,47m:126,-1661
m:139,-28485
m:133,18447
m:143,23704
m:139,-26900
m:138,-23609
m:118,8094
m:136,-20800
m:137,4875
m:134,-2806
m:122,17868
m:131,26460
m:122,21288
m:122,27264
m:126,-26752
m:140,28724
m:118,18490
m:137,-6588
m:127,11160
m:147,-13616
m:145,31216
m:150,32361
m:152,23676
m:151,-6182
m:153,6850
m:127,-6
m:152,-16097
m:135,11090
m:154,14857
m:156,-28816
m:141,-1824
m:137,-21996
$GPGGA,162027.000,5132.4105,N,00000.5011,W,1,07,1.37,-32.7,M,47P,162027.000,A,5132.4105,N,00000.5011,W,15.19,136.53,060718,,,A*4A
$G$GPGGA,162028.000,5132.4074,N,00000.4971,W,1,07,1.37,-32.7,M,47$GPGGA,162029.000,5132.4043,N,00000.4941,W,1,07,1.37,-32.8,M,47$GPGGA,162030.000,5132.4005,N,00000.4949,W,1,07,1.37,-31.7,M,47.0,M,,*65
$GPGSA,A,3,27,08,32,01,11,10,28,,,,,,3m:128,-28384
m:160,29992
m:127,-2458
m:122,4312
m:151,10730
m:165,-15314
m:128,24877
m:170,-5378
m:164,2878
m:136,1538
m:167,17494
m:154,31812
m:146,-21046
m:160,-13176
m:156,3004
m:158,29857
m:152,8944
m:130,206
m:166,23076
m:141,3795
m:156,22588
m:157,-31636
m:113,-19023
m:152,24132
m:140,-27956
m:134,14588
m:125,9867
m:122,-5503
m:129,-13048
m:125,-18959
m:135,28890
m:113,-27805
$GPGGA,162031.000,5132.3960,N,00000.4977,W,1,07,1.37,-31.9,M,47$GPGGA,162032.000,5132.3920,N,00000.5013,W,1,07,1.37,-31.9,M,47M67
$GPGSA,A,3,27,08,32,01,11,10,28,,,,,,3.07,1.37,2.75*05
$GPGSV,3$GPGGA,162033.000,5132.3888,N,00000.5051,W,1,07,1.37,-30.7,M,470A,5132.3888,N,00000.5051,W,14.03,212.36,060718,,,A*4C
$GPVTG,212.36$GPGGA,162034.000,5132.3858,N,00000.5087,W,1,07,1.37,-29.5,M,47m:98,22838
m:58,18242
m:57,7548
m:61,-8656
m:67,4687
m:48,21392
m:47,-8987
m:40,-17371
m:41,10743
m:58,5803
m:54,-17818
m:48,21062
m:31,26774
m:56,-4481
m:45,5212
m:42,-28080
m:53,-17688
m:27,11435
m:58,-9678
m:33,24924
m:72,-23972
m:37,-32046
m:70,20972
m:92,15727
m:88,7732
m:116,21651
m:81,6073
m:121,15677
m:112,26965
m:89,-21260
m:123,31572
m:140,21623
$GPGGA,162035.000,5132.3831,N,00000.5122,W,1,07,1.37,-27.6,M,47260718,,,A*45
$GPVTG,208.21,T,,M,12.77,N,23.66,K,A*36
$GPGGA,162036.000,5132.3805,N,00000.5152,W,1,07,1.37,-25.4,M,47$GPGGA,162037.000,5132.3778,N,00000.5179,W,1,07,1.37,-24.1,M,4770,A,5132.3778,N,00000.5179,W,11.80,204.87,060718,,,A*40
$GPVTG,204.87,T,,M$GPGGA,162038.000,5132.3753,N,00000.5202,W,1,07,1.37,-22.0,M,47m:101,17690
m:170,1467
m:180,-27532
m:152,-4116
m:161,4083
m:185,20800
m:170,-25659
m:179,-14748
m:151,21528
m:165,-7852
m:230,17501
m:245,-16194
m:225,-13357
m:225,32603
m:229,-2497
m:239,21428
m:252,29532
m:249,29702
m:251,-29010
m:257,15924
m:271,-14177
m:308,27654
m:323,-25376
m:325,-11168
m:293,-10495
m:342,28246
m:394,-13210
m:409,910
m:378,-11645
m:417,15360
m:355,19355
m:339,8112
$GPGGA,162039.000,5132.3728,N,00000.5223,W,1,07,1.37,-20.4,M,47$GPGGA,162040.000,5132.3703,N,00000.5242,W,1,07,1.37,-19.0,M,47$GPGGA,162041.000,5132.3677,N,00000.5262,W,1,07,1.37,-17.3,M,47$GPGGA,162042.000,5132.3653,N,00000.5281,W,1,07,1.37,-15.9,M,47.0,M,,*64
$GPGSA,A,3,27,08,32,01,11,10,28,,,,,,3m:357,-32768
m:310,23390
m:325,13909
m:229,-5656
m:286,9336
m:296,19806
m:275,-19586
m:285,13297
m:290,16592
m:275,20102
m:297,31154
m:320,25048
m:268,28738
m:314,12895
m:296,25488
m:325,27656
m:322,-22616
m:323,-28964
m:317,2312
m:315,12521
m:300,19916
m:301,-25265
m:273,24459
m:310,22480
m:277,4548
m:312,-13402
m:297,2288
m:320,-27347
m:329,1922
m:274,-16227
m:314,-12799
m:354,-9044
$GPGGA,162043.000,5132.3631,N,00000.5304,W,1,07,1.37,-14.7,M,47$GPGGA,162044.000,5132.3613,N,00000.5331,W,1,07,1.37,-12.8,M,47.0,M,,*6A
$GPGSA,A,3,27,08,32,01,11,10,28,,,,,,3.07,1.37,2.75*05$GPGGA,162045.000,5132.3593,N,00000.5363,W,1,07,1.37,-12.2,M,475N,00000.5363,W,10.14,225.42,060718,,,A*4D
$GPVTG,225.42,T,,M,10.14,N,18.78,K,A*3C
$GPGGA,162046.000,5132.3577,N,00000.5404,W,1,07,1.36,-11.9,M,47m:362,24933
m:444,3785
m:576,15814
m:575,-31612
m:560,-32376
m:600,-29575
m:638,-9248
m:643,-541
m:695,-4053
m:734,30882
m:709,-13020
m:691,28065
m:684,31780
m:669,-13072
m:660,23234
m:670,15786
m:577,5722
m:599,5118
m:572,7121
m:619,21276
m:581,12129
m:606,-14266
m:605,4197
m:596,-23654
m:601,26449
m:566,-26881
m:595,-17271
m:541,-8285
m:581,11611
m:543,6116
m:586,-11057
m:2196,2195
$GPGGA,162047.000,5132.3567,N,00000.5448,W,1,07,1.37,-11.3,M,47$GPGGA,162048.000,5132.3564,N,00000.5492,W,1,07,1.37,-10.4,M,47$GPGGA,162049.000,5132.3574,N,00000.5538,W,1,07,1.37,-8.2,M,47.m:566,17392
m:612,25554
m:-169,-1
m:-4862,-225
m:-187,-1
m:13314,-167
m:599,-2882
m:542,7165
m:596,16754
m:554,14227
m:600,-1
m:-17616,-1
m:567,-11694
m:593,-14188
m:579,-1
m:32331,-1
m:584,22228
m:566,20441
m:568,-22690
m:543,21036
m:529,23779
m:487,-1055
m:524,11384
m:536,-22005
m:512,15471
m:497,12050
m:526,-21728
m:499,-23176
m:500,24786
m:521,19934
m:2196,2195
m:2196,2195
$GPGGA,162050.000,5132.3593,N,00000.5578,W,1,07,1.36,-6.5,M,47.$GPGGA,162051.000,5132.3617,N,00000.5613,W,1,07,1.36,-5.5,M,47.$GPGGA,162052.000,5132.3644,N,00000.5636,W,1,07,1.36,-4.6,M,47.018,,,A*7F
$GPVTG,327.79,T,,M,9.97,N,18.47,K,A*08
$GPGGA,162053.000,5132.3677,N,00000.5649,W,1,07,1.36,-3.7,M,47.$GPGGA,162054.000,5132.3713,N,00000m:435,14208
m:501,7201
m:463,17383
m:484,21980
m:492,-16432
m:401,22449
m:399,-19527
m:415,26163
m:444,-25926
m:451,1904
m:447,11526
m:428,3610
m:411,-8924
m:345,-16972
m:337,-27504
m:407,22524
m:384,-30184
m:357,-7606
m:332,-21571
m:361,-26122
m:342,-1156
m:283,-5113
m:361,-26788
m:335,-2960
m:305,-3900
m:289,-17856
m:306,-19635
m:262,-26755
m:430,19399
m:328,-32712
m:392,6169
m:397,14532
.5655,W,1,07,1.36,-2.7,M,47.0,M,,*52
$GPGSA,A,3,27,08,32,01,11$GPGGA,162055.000,5132.3754,N,00000.5651,W,1,08,1.34,-1.6,M,47.$GPGGA,162056.000,5132.3793,N,00000.5650,W,1,08,1.33,-0.8,M,47.0,M,,*5A
$GPGSA,A,3,27,08,32,18,01,11,10,28,,,,,2$GPGGA,162057.000,5132.3832,N,00000.5653,W,1,08,1.33,0.0,M,47.0,1,18,72,280,26,08,70,168,28,11,57,282,21,01,45,271,19*76
$GPGSV,3,2,$GPGGA,162058.000,5132.3871,N,00000.5662,W,1,08,1.33,1.1,M,47.0*
m:467,4912
m:461,9002
m:472,2050
m:458,-7380
m:379,22303
m:437,-21624
m:488,-2086
m:448,-17251
m:398,22576
m:458,-1077
m:398,-22179
m:414,12806
m:433,-15560
m:418,-31814
m:397,-28525
m:456,-6537
m:384,-11698
m:473,3305
m:437,-17043
m:392,12450
m:452,-3000
m:494,11320
m:459,27092
m:411,-12085
m:401,29153
m:427,-32327
m:431,18749
m:471,10450
m:447,-22041
m:469,2474
m:455,15517
m:450,10272
$GPGGA,162059.000,5132.3913,N,00000.5675,W,1,08,1.33,1.7,M,47.005675,W,15.23,346.83,060718,,,A*4E
$GPVTG,346.83,T,,M,15.23,N,28.23,$GPGGA,162100.000,5132.3956,N,00000.5691,W,1,08,1.34,2.5,M,47.0$GPGGA,162101.000,5132.3997,N,00000.5711,W,1,08,1.34,3.0,M,47.0$GPGGA,162102.000,5132.4036,N,00000.5735,W,1,08,1.33,3.7,M,47.0035,W,15.11,3m:422,-20977
m:412,-6954
m:374,31542
m:402,-24428
m:430,14944
m:452,-13900
m:403,4058
m:353,30998
m:396,11707
m:441,1053
m:385,-17992
m:373,26468
m:438,-15334
m:378,26131
m:360,1227
m:428,30662
m:363,13402
m:408,19277
m:355,12964
m:369,-7132
m:401,-29984
m:369,-17116
m:387,-26416
m:364,8693
m:387,-23950
m:392,-19379
m:341,-2574
m:395,-31748
m:350,27496
m:371,9380
m:380,20632
m:337,3711
39.27,060718,,,A*4A
$GPVTG,339.27,T,,M,15.11,N,27.99,K,A*30
$$GPGGA,162104.000,5132.4115,N,00000.5791,W,1,08,1.33,4.8,M,47.0$GPGGA,162105.000,5132.4152,N,00000.5821,W,1,08,1.33,5.0,M,47.0$GPGGA,162106.000,5132.4192,N,00000.5851,W,1,08,1.34,5.1,M,47.0m:376,-11764
m:386,3688
m:329,7687
m:376,8180
m:401,-32324
m:362,15741
m:315,26981
m:357,-23129
m:380,307
m:369,2992
m:342,-19036
m:312,-10535
m:348,9520
m:350,13515
m:374,-5769
m:371,-18768
m:363,-14182
m:362,22959
m:337,17135
m:339,27151
m:325,-30362
m:316,22900
m:323,-27223
m:321,27452
m:335,26442
m:341,-31053
m:332,14944
m:312,27708
m:322,-13022
m:279,19256
m:282,31191
m:288,-27863
$GPGGA,162107.000,5132.4232,N,00000.5884,W,1,08,1.33,5.2,M,47.0N.34,K,A*35
$GPGGA,162108.000,5132.4273,N,00000.5921,W,1,08,1.34,5.4,M,47.0$GPGGA,162109.000,5132.4312,N,00000.5959,W,1,08,1.33,5.3,M,47.0,,,*7E
$GPGSA,A,3,27,08,32,18,01,11,10,28,,,,,2.66,1.33,2.31*0E
$GP$GPGGA,162110.000,5132.4349,N,00000.6002,W,1,08,1.34,5.2,M,47.0000,A,5132.4349,N,00000.6002,W,16.90,324.46,060718,,,A*43
$GPVTG,324.m:340,27378
m:337,13324
m:340,9942
m:319,29008
m:293,19964
m:320,31063
m:330,-12426
m:273,-12336
m:299,-12512
m:321,16546
m:317,-2840
m:285,22612
m:269,25737
m:290,-2977
m:296,-14031
m:265,-8530
m:281,20150
m:249,-28855
m:271,5516
m:258,14070
m:267,-30208
m:300,-32260
m:282,-6688
m:328,-24583
m:300,7322
m:326,-3982
m:291,-29139
m:310,3726
m:278,-9658
m:294,3569
m:276,15374
m:304,30046
$GPGGA,162111.000,5132.4386,N,00000.6052,W,1,08,1.33,5.1,M,47.0$GPGGA,162112.000,5132.4416,N,00000.6105,W,1,08,1.33,5.1,M,47.0,7F
$GPGSV,3,2,11,10,34,054,29,27,34,142,34,32,30,098,34,28,29,310,20*73
$$GPGGA,162113.000,5132.4445,N,00000.6164,W,1,08,1.34,5.7,M,47.0$GPGGA,162114.000,5132.4472,N,00000.6224,W,1,08,1.34,6.1,M,47.0m:285,-14234
m:296,6385
m:284,-16747
m:284,-19091
m:304,12149
m:286,-7879
m:283,11032
m:253,11931
m:274,14872
m:255,-5978
m:277,4728
m:247,-22680
m:254,-1690
m:256,-22671
m:247,9224
m:261,13646
m:244,32414
m:284,-18499
m:239,21064
m:260,-4819
m:232,-32329
m:2196,2195
m:2196,2195
m:246,12886
m:267,-21097
m:247,-18785
m:274,24838
m:236,-17638
m:276,16299
m:257,-9086
m:250,7828
m:258,3248
$GPGGA,162115.000,5132.4497,N,00000.6284,W,1,08,1.33,6.9,M,47.0$GPGGA,162116.000,5132.4523,N,00000.6347,W,1,08,1.33,7.2,M,47.0$GPGGA,162117.000,5132.4549,N,00000.6411,W,1,08,1.22,7.4,M,47.0618,,,A*4F
$GPVTG,303.64,T,,M,17.06,N,31.62,K,A*39
$GPGGA,162118.000,5132.4575,N,00000.6475,W,1,08,1.22,7.7,M,47.0m:229,-21480
m:244,-26806
m:246,-12029
m:235,27049
m:255,-5196
m:232,27077
m:230,10536
m:245,-16372
m:234,-4006
m:239,-28337
m:226,-26440
m:216,-27911
m:233,-1
m:-23986,-1
m:229,-30222
m:219,2078
m:237,-25107
m:220,10326
m:233,-7590
m:-26,-1
m:-32512,-135
m:234,-15742
m:263,23941
m:231,501
m:216,13396
m:235,-27756
m:229,-9068
m:227,22650
m:242,2379
m:227,29191
m:213,-25722
m:231,-10526
$GPGGA,162119.000,5132.4601,N,00000.6538,W,1,08,1.22,8.0,M,47.0$GPGGA,162120.000,5132.4627,N,00000.6602,W,1,08,1.22,8.3,M,47.0$GPGGA,162121.000,5132.4654,N,00000.6667,W,1,08,1.22,8.5,M,47.0,M,,*79
$GPGSA,A,3,27,08,32,18,01,11,10,28,,,,,1.53,m:227,15328
m:229,2720
m:238,25595
m:232,8187
m:208,-8110
m:1552,2155
m:1552,2155
m:212,23014
m:944,16003
m:235,22794
m:229,-22714
m:230,-18236
m:219,-30126
m:209,11594
m:230,27620
m:230,-19177
m:206,25907
m:230,30053
m:225,-7834
m:196,1380
m:205,13034
m:198,18772
m:180,16366
m:191,-21770
m:159,-11427
m:146,569
m:162,-14557
m:164,28172
m:147,-5216
m:186,-31326
m:168,6093
m:182,-6973
$GPGGA,162122.000,5132.4683,N,00000.6725,W,1,08,1.22,9.5,M,47.0$GPGGA,162123.000,5132.4712,N,00000.6771,W,1,08,1.22,11.3,M,47.G05.33,T,,M,15.91,N,29.49,K,A*31
$GPGGA,162124.000,5132.4738,N,00000.6830,W,1,08,1.33,15.8,M,47.$GPGGA,162125.000,5132.4760,N,00000.6893,W,1,08,1.33,17.1,M,47.m:193,30184
m:171,17200
m:189,-32429
m:215,17451
m:184,30406
m:191,-14516
m:194,3026
m:227,16627
m:189,3571
m:180,14028
m:210,-23588
m:204,18075
m:191,4300
m:208,-20875
m:234,3546
m:204,-206
m:201,16322
m:200,25704
m:218,-27671
m:214,-32624
m:186,-8719
m:213,23870
m:229,21400
m:224,-19318
m:217,29496
m:189,-22938
m:201,-18778
m:200,13668
m:185,28388
m:173,15842
m:165,26724
m:171,1697
$GPGGA,162126.000,5132.4778,N,00000.6962,W,1,08,1.33,17.3,M,47.$GPGGA,162127.000,5132.4796,N,00000.7028,W,1,08,1.33,17.3,M,47..292.88,060718,,,A*46
$GPVTG,292.88,T,,M,16.81,N,31.14,K,A*3D
$GPGGA,162128.000,5132.4815,N,00000.7097,W,1,08,1.33,16.9,M,47.$GPGGA,162129.000,5132.4834,N,00000.7161,W,1,08,1.33,16.5,M,47.0,M,,*46
$GPGS$GPGGA,162130.000,5132.4854,N,00000.7222,W,1,08,1.33,16.1,M,47.,66,1.3m:144,7109
m:133,-9237
m:139,-14659
m:137,-968
m:145,-23614
m:148,-20261
m:135,-23623
m:132,-8188
m:129,27370
m:148,-26846
m:138,-21511
m:156,-17397
m:151,4076
m:139,16979
m:138,-19208
m:147,26746
m:112,-9997
m:108,7313
m:112,-1560
m:108,-10230
m:73,-27135
m:63,-27208
m:60,-24282
m:47,32549
m:31,26806
m:52,-30713
m:45,-21317
m:34,-16703
m:50,-11444
m:43,-14738
m:46,26734
m:26,13034
3,2.30*0F
$GPRMC,162130.000,A,5132.4854,N,00000.7222,W,15.43,3,0000.7283,W,1,08,1.33,15.7,M,47.0,M,,*47
$GPGSA,A,3,27,08,32,18,01,11,10,$GPGGA,162132.000,5132.4899,N,00000.7342,W,1,08,1.33,15.5,M,47.828,01,45,271,29*78
$GPGSV,3,2,11,10,34,054,28,27,34,142,33,32,30,097$GPGGA,162133.000,5132.4923,N,00000.7401,W,1,08,1.33,15.5,M,47.$GPGGA,162134.000,5132.4947,N,00000.7458,W,1,08,1.33,15.6,M,47.m:38,8156
m:26,252
m:35,4717
m:31,24764
m:29,-25889
m:37,-10736
m:22,-8588
m:33,16411
m:37,6418
m:40,-22701
m:38,21232
m:32,-6157
m:44,23735
m:43,-4315
m:35,-25264
m:62,-20227
m:59,18626
m:39,19707
m:40,-98
m:55,-27480
m:56,21797
m:75,-11502
m:37,23983
m:32,29556
m:60,21046
m:41,-16334
m:50,30457
m:56,-32451
m:23,-1780
m:40,-586
m:33,-13068
m:44,-31048
$GPGGA,162135.000,5132.4969,N,00000.7513,W,1,08,1.33,15.8,M,47.$GPGGA,162136.000,5132.4991,N,00000.7567,W,1,08,1.33,16.1,M,47.$GPGGA,162137.000,5132.5010,N,00000.7619,W,1,08,1.33,16.4,M,47.7,,,A*4D
$GPVTG,301.73,T,,M,13.50,N,25.02,K,A*39
$GPGGA,162138.000,5132.5026,N,00000.7672,W,1,08,1.33,16.6,M,47.m:56,-1535
m:71,18358
m:45,8276
m:40,-11425
m:47,-31977
m:50,-11120
m:50,8854
m:36,5799
m:30,-31438
m:36,4496
m:47,21322
m:43,-4889
m:40,17452
m:31,-19685
m:40,-6295
m:45,3607
m:35,17927
m:56,-14970
m:44,14248
m:48,4034
m:62,19687
m:29,7766
m:40,-29643
m:25,6292
m:40,-28482
m:22,15933
m:40,-15110
m:34,12832
m:41,-320
m:51,-28818
m:36,-15704
m:50,7965
$GPGGA,162139.000,5132.5041,N,00000.7722,W,1,08,1.33,17.0,M,47.$GPGGA,162140.000,5132.5059,N,00000.7768,W,1,08,1.33,16.9,M,47.$GPGGA,162141.000,5132.5083,N,00000.7806,W,1,08,1.33,16.4,M,47.$GPGGA,162142.000,5132.5109,N,00000.7836,W,1,08,1.33,16.1,M,47.,,01,11,10,28,,,,,2.66,1.33,2.30*0F
$GPGSV,3,1,11,18,72,280,29,08,70m:17,-8264
m:30,-14054
m:24,29391
m:20,24084
m:31,32736
m:27,27643
m:28,19834
m:25,-15371
m:34,-16556
m:36,-163
m:29,-26878
m:27,3900
m:29,-12746
m:44,-20845
m:23,-13920
m:32,-27369
m:43,24649
m:57,22804
m:25,5700
m:63,1810
m:53,15868
m:46,11571
m:86,2742
m:82,11902
m:66,-25578
m:69,10912
m:62,1465
m:50,4326
m:58,-25074
m:61,-19088
m:50,-6219
m:54,13924
$GPGGA,162143.000,5132.5141,N,00000.7840,W,1,08,1.33,16.2,M,47.$GPGGA,162144.000,5132.5174,N,00000.7812,W,1,08,1.33,16.3,M,47.10,28,,,,,2.66,1.33,2.30*0F
$GPRMC,162144.000,A,5132.5174,N,00000.781$GPGGA,162145.000,5132.5199,N,00000.7768,W,1,07,1.80,16.6,M,47.,2.5199,N,00000.7768,W,14.63,53.52,060718,,,A*7F
$GPVTG,53.52,T,,M,1$GPGGA,162146.000,5132.5223,N,00000.7711,W,1,08,1.33,16.2,M,47.m:61,19110
m:64,-21909
m:53,19431
m:82,-5127
m:69,11312
m:72,4
m:62,5166
m:80,22978
m:42,-13628
m:89,-12865
m:49,1328
m:73,1065
m:55,-24598
m:74,-13777
m:44,24348
m:56,20298
m:31,-16854
m:49,15528
m:37,-8111
m:34,7935
m:65,25438
m:29,7730
m:59,-246
m:30,10464
m:54,31952
m:40,27140
m:84,-12367
m:44,-24687
m:84,-28520
m:49,30216
m:59,-9581
m:44,-13690
$GPGGA,162147.000,5132.5220,N,00000.7654,W,1,08,1.33,15.9,M,47.$GPGGA,162148.000,5132.5208,N,00000.7601,W,1,08,1.33,15.5,M,47.3,22.82,K,A*36
$GPGGA,162149.000,5132.5191,N,00000.7554,W,1,08,1.33,15.4,M,47.$GPGGA,162150.000,5132.5170,N,00000.7509,W,1,07,2.01,15.6,M,47.m:159,24894
m:54,2781
m:46,10074
m:58,31297
m:36,25975
m:54,-14826
m:31,11980
m:34,-30659
m:30,-29252
m:18,-24565
m:28,-22575
m:37,-31711
m:20,13957
m:45,-14133
m:39,8070
m:32,-26500
m:32,-18568
m:43,4894
m:39,-15306
m:36,8632
m:37,9568
m:37,-11530
m:23,15876
m:32,-5445
m:39,11897
m:39,-3396
m:30,11929
m:40,-26755
m:71,-29732
m:41,23288
m:40,14068
m:32,15882
$GPGGA,162151.000,5132.5149,N,00000.7468,W,1,08,1.33,15.7,M,47.$GPGGA,162152.000,5132.5129,N,00000.7423,W,1,08,1.33,16.2,M,47.71.80,130.35,060718,,,A*43
$GPVTG,130.35,T,,M,11.80,N,21.87,K,A*3D
$GPGGA,162153.000,5132.5109,N,00000.7380,W,1,08,1.33,16.5,M,47.$GPGGA,162154.000,5132.5092,N,00000.7333,W,1,08,1.33,17.1,M,47.*
$GPGSA,A,3,27,08,32,18,01,11,10,28,,,,,2.66,1.33,2.30*0F
$GPRMC,16$GPGGA,162155.000,5132.5071,N,00000.7290,W,1,08,1.33,17.3,M,47.0
$GPRm:55,-19096
m:55,26122
m:43,3010
m:29,31549
m:54,-31878
m:48,-14776
m:59,-11984
m:27,-12098
m:35,11987
m:97,22065
m:116,10644
m:118,-21438
m:92,4596
m:190,10198
m:164,-5233
m:181,-5204
m:131,7744
m:167,1990
m:156,-24767
m:154,16814
m:158,14289
m:171,-26525
m:182,25174
m:151,-17306
m:201,14625
m:253,-3025
m:215,-4891
m:239,28726
m:248,-13208
m:241,15494
m:216,-6176
m:190,12541
MC,162155.000,A,5132.5071,N,00000.7290,W,11.97,125.42,060718,,,28,01,11,10,28,,,,,2.66,1.33,2.30*0F
$GPRMC,162156.000,A,5132.5050,N$GPGGA,162157.000,5132.5029,N,00000.7194,W,1,08,1.33,18.5,M,47.2,35,01,45,271,36*71
$GPGSV,3,2,11,10,34,054,26,27,34,142,23,32,30,09$GPGGA,162158.000,5132.5008,N,00000.7144,W,1,08,1.33,19.1,M,47.$GPGGA,162159.000,5132.4985,N,00000.7098,W,1,08,1.33,19.3,M,47.m:249,24657
m:282,31009
m:294,-21308
m:303,-28340
m:292,-25163
m:300,-29448
m:270,-12304
m:289,22175
m:284,3397
m:308,7213
m:286,29240
m:320,-10053
m:335,-6865
m:379,13784
m:345,-25066
m:327,-11922
m:305,-7160
m:269,-21220
m:332,-19369
m:337,23813
m:268,-5120
m:274,23966
m:312,-27626
m:332,32304
m:272,-23791
m:297,13130
m:284,-6788
m:276,24577
m:307,24856
m:227,-12163
m:319,-2670
m:265,-6540
$GPGGA,162200.000,5132.4962,N,00000.7050,W,1,08,1.33,19.3,M,47.8,A*3A
$GPGGA,162201.000,5132.4937,N,00000.7002,W,1,08,1.33,19.4,M,47.$GPGGA,162202.000,5132.4912,N,00000.6950,W,1,08,1.33,19.4,M,47.0,14.61,128.53,060718,,,A*4F
$GPVTG,128.53,T,,M,14.61,N,27.07,K,A*30m:317,-25044
m:258,-29674
m:290,-29012
m:276,-10370
m:266,30734
m:288,-31778
m:224,-15148
m:256,26866
m:234,-32207
m:307,2432
m:256,32561
m:300,-32678
m:284,24444
m:303,-2818
m:253,-32375
m:255,-27432
m:220,6202
m:247,8393
m:251,-25215
m:283,28704
m:268,25953
m:268,24509
m:271,-23634
m:244,19518
m:225,1363
m:207,-2615
m:199,-1783
m:192,25504
m:210,12738
m:217,-12624
m:246,-25512
m:270,7716
