m:41,13522
m:0,2182
m:38,2873
m:35,-24630
m:33,31757
m:32,3247
m:35,24016
m:39,-29220
m:43,4598
m:27,-20912
m:32,-5274
m:31,17511
m:28,-21853
m:34,32590
m:37,14872
m:31,7594
m:39,28662
m:29,-23136
m:30,22055
m:31,-4582
m:28,-31244
m:30,-9950
m:30,12518
m:45,2356
m:39,31264
m:34,-21313
m:32,-22992
m:25,18404
m:32,-21645
m:28,19294
m:33,6790
m:31,20120
$GPRMC,140647.000,A3,,M,27.18,N,50.36,K,A*38
m:36,24225
m:31,-25486
m:37,-9861
m:27,-18731
m:31,32497
m:33,-32675
m:26,31841
m:31,28672
m:39,-7476
m:28,-17696
m:43,-28853
m:32,-14017
m:27,-21808
m:35,-16993
m:40,-27400
m:27,600
m:36,13220
m:26,22806
m:25,-9342
m:31,1966
m:27,25776
m:35,7174
m:34,-21052
m:38,29200
m:50,-27290
m:30,17512
m:31,-32416
m:21,7134
m:40,-25387
m:28,4914
m:33,23946
m:32,-18690
$GPRMC,140649.000,8,,M,26.01,N,48.20,K,A*36
$GPRMC,140650.000,A,5132.3544,N,45.94,K,A*34
$GPRMC,$VTG,109.71,T,,M,23.77,N,44.04,K,A*36
m:30,23349
m:29,-21548
m:29,-15080
m:36,17286
m:27,-2091
m:25,28619
m:34,12977
m:29,-23830
m:26,7428
m:29,-3391
m:28,-26292
m:24,20111
m:32,57
m:18,14888
m:30,15939
m:33,-2193
m:22,-24224
m:31,-7212
m:28,-23514
m:30,1368
m:48,25496
m:28,3296
m:32,-28216
m:21,5027
m:20,2775
m:23,32739
m:30,6622
m:27,-2407
m:19,5501
m:44,-11163
m:44,12503
m:30,6316
m:21,29481
m:34,11924
m:44,-19186
m:29,-4482
m:34,25608
m:32,-1695
m:33,11412
m:38,30758
m:25,1102
m:30,31472
m:33,-14120
m:21,-17324
m:33,-19278
m:26,-13721
m:29,25783
m:31,24054
m:27,-6528
m:37,15320
m:28,-2640
m:28,-13454
m:32,25115
m:38,11929
m:28,7440
m:34,-915
m:27,-11440
m:28,-9928
m:26,-3568
m:20,-18209
m:27,8741
m:42,24951
m:38,25725
m:36,-11912
$GPRMC,140657.000,A.T,,M,14.10,N,26.14,K,A*3A
m:25,-3338
m:29,-8886
m:36,-471
m:51,23526
m:36,-19475
m:31,17932
m:22,-20386
m:140,-14663
m:36,-7908
m:28,2126
m:35,20328
m:32,3502
m:29,-25228
m:22,-18224
m:32,31561
m:33,-12392
m:31,-7932
m:32,23190
m:28,25876
m:28,-31079
m:27,30188
m:33,-32588
m:28,-64
m:28,-11747
m:44,-11679
m:31,-17121
m:27,24865
m:26,22449
m:32,6323
m:28,10224
m:32,23610
m:27,-18824
$GPRMC,140702.000,A,5132.3624,N,00000.54$GPGGA,140703.000,5132.3636,N,00000.5509,W,1,09,0.92,14.7,M,47.0,M,,*40
m:29,22184
m:32,2714
m:36,-4950
m:24,-22484
m:30,-22428
m:32,16086
m:36,467
m:27,-14525
m:24,-7587
m:24,-24961
m:29,-27570
m:20,-10386
m:30,-1656
m:36,-14222
m:36,16391
m:31,10729
m:26,31551
m:22,-9881
m:21,8694
m:31,13360
m:24,13612
m:25,-15676
m:24,-7666
m:26,-654
m:29,-6830
m:34,-13603
m:34,-14817
m:28,-21788
m:28,-32489
m:31,14136
m:19,-2031
m:29,-9852
$GPRMC,140705.000,A,51324,4.57,K,A*3B
$GPRMC,140706.000,A,5132.3664,N,0000*
m:28,-6614
m:22,3659
m:24,18124
m:20,18584
m:22,25161
m:28,-16883
m:30,23714
m:27,20200
m:31,-25667
m:26,-31383
m:27,15594
m:28,28924
m:28,15387
m:32,15466
m:23,5723
m:36,10094
m:32,3773
m:21,18392
m:31,-18880
m:30,-16577
m:39,-17830
m:31,-15285
m:36,-32576
m:28,13764
m:15,-6865
m:29,15686
m:26,-22237
m:28,30777
m:26,15126
m:33,7385
m:23,8116
m:46,23164
$GPRMC,140710.000,A,5132.3703,N,00000.5556,W,$GPGGA,140711.000,5132.3713,N,00000.5559,W,1,08,1.04,15.4,M,47.
$GPRMC,140711.3,N,6.63,K,A*01
m:35,2316
m:27,2379
m:29,-25022
m:28,20728
m:39,30579
m:26,18455
m:31,-26711
m:23,31268
m:44,-28098
m:31,-22762
m:25,9468
m:30,24165
m:30,-20806
m:31,-12107
m:32,-5034
m:31,31877
m:25,21911
m:28,19271
m:21,-24656
m:28,-23327
m:24,-19851
m:32,-27078
m:33,15342
m:25,-32661
m:27,-30710
m:41,-26724
m:28,-26136
m:34,20062
m:28,-19030
m:24,26136
m:35,-13899
m:35,-13507
$GPRMC,140714.000,A,5132.3737,N,00000.556$GPGGA,140715.000,5132.3745,N,00000.5565,W,1,08,1.04,15.9,M,47.0,M,,*48
$GPRMC,140715.000,A,5132.3745,NA
m:33,-22030
m:19,-4775
m:36,26657
m:34,-31312
m:24,5634
m:24,-31812
m:30,-5228
m:30,20161
m:29,-193
m:34,-13184
m:30,-28682
m:27,-29073
m:29,-26763
m:26,-25874
m:31,-3210
m:33,-13318
m:28,-20648
m:27,-11051
m:28,-26958
m:28,-31185
m:30,-17780
m:33,20088
m:33,-4394
m:29,29916
m:35,10454
m:26,-14364
m:32,12935
m:28,4160
m:25,27133
m:26,-21997
m:38,-28398
m:25,-22408
$GPRMC,140719.000,A,5132.3776,NA
$GPRMC,140720.000,A,5132.3783,N,00000.5584,W,2.55,2.90,04$GPGGA,140721.000,5132.3790,N,00000.5587,W,1,08,1.04,16.3,M,47.17,20,1writing flip buffer
m:39,6380
m:32,25674
m:30,30482
m:29,17835
m:24,3070
m:28,716
m:33,-2018
m:33,7647
m:33,-15450
m:36,-27229
m:25,20050
m:26,-23024
m:20,6908
m:27,-4435
m:31,31577
m:25,11191
m:23,-26443
m:25,-13396
m:25,-19416
m:25,25046
m:23,-20052
m:33,25454
m:30,-15618
m:26,30967
m:40,8094
m:35,4052
m:34,31906
m:31,28922
m:38,-30074
m:27,-7428
m:33,18698
m:26,-18558
$GPRMC,140721.000,A,5132.3$GPGGA,140722.000,5132.3797,N,00000.5590,W,1,08,1.04,16.3,M,47.0,*40
$GPRMCP,335.53,T,,M,3.16,N,5.86,K,A*31
m:142,-22343
m:31,-11055
m:44,-13259
m:30,-20400
m:27,-15992
m:31,-32476
m:29,-16150
m:27,27947
m:36,25000
m:22,25363
m:32,-15692
m:23,-29742
m:25,-19058
m:33,31674
m:28,-17485
m:25,29824
m:31,1296
m:37,-17004
m:28,-15860
m:33,15610
m:31,24180
m:33,-13950
m:29,-27564
m:29,4382
m:29,-13224
m:38,-23732
m:25,-3652
m:29,-11906
m:32,-23268
m:27,14073
m:32,-3373
m:34,-27866
m:141,32674
m:30,-14109
m:20,31675
m:43,-20074
m:34,-15328
m:31,-22488
m:25,-18034
m:34,-10464
m:34,14628
m:32,17958
m:34,-17513
m:36,-28373
m:29,26781
m:21,-751
m:30,21020
m:23,26029
m:31,13392
m:36,31622
m:26,9905
m:33,-14121
m:40,31533
m:30,29939
m:28,-23314
m:28,27614
m:25,-31116
m:28,-20146
m:24,-14656
m:29,-16891
m:28,5461
m:34,-1093
m:27,26796
m:34,26054
$GPRMC,140729.000,A,5132.$GPGGA,140730.000,5132.3818,N,00000.5594,W,1,08,1.04,16.2,M,47.0,M,,*4E
m:143,1190
m:29,-20457
m:32,28460
m:37,6268
m:24,29583
m:24,-10854
m:37,-19941
m:20,30699
m:24,24749
m:35,-17074
m:37,-15520
m:29,-25484
m:35,22994
m:31,-18910
m:33,19824
m:28,-24086
m:29,-15449
m:26,1580
m:20,17014
m:30,25734
m:26,-30349
m:31,29788
m:24,-8992
m:34,32755
m:38,-8179
m:29,7494
m:29,12251
m:52,11298
m:26,10008
m:30,-22402
m:28,-11779
m:34,-14951
$GPRMC,1T35.53,T,,M,0.02,N,0.03,K,A*3F
$GPRMC,140736.000,A,5132.3816,N,00000.55E$GPGGA,140737.000,5132.3816,N,00000.5591,W,1,08,1.04,16.3,M,47.0,M,,*43
m:22,-19169
m:26,18335
m:32,-8679
m:27,21924
m:35,20500
m:36,-6239
m:36,7450
m:38,-18455
m:29,1120
m:28,-8102
m:27,23914
m:23,-14477
m:32,3880
m:26,-13352
m:28,-12740
m:26,24191
m:28,-30650
m:41,28080
m:31,17007
m:26,10551
m:31,-22788
m:27,-12176
m:26,20944
m:33,-3002
m:36,-6154
m:27,-5126
m:29,-14983
m:27,-7256
m:29,-17346
m:28,-29484
m:35,-23416
m:30,15299
$GPRMC,140738.000,A,5132.3816,N,00000.5591,W,0.01,$GPGGA,140739.000,5132.3816,N,00000.5591,W,1,08,1.04,16.3,M,47.0,M,,*4D
$GPRMC,1407433,T,,M,0.01,N,0.02,K,A*3D
m:26,-24076
m:28,17723
m:29,4902
m:33,-2092
m:36,25229
m:39,-23303
m:33,26404
m:33,-15440
m:21,-12394
m:13,-23007
m:30,28486
m:29,21194
m:33,-3908
m:29,-26406
m:29,-12391
m:27,-21856
m:29,13014
m:35,-26657
m:32,-19305
m:34,-8360
m:34,14449
m:30,10149
m:28,-22368
m:33,8125
m:29,30771
m:36,-16534
m:40,-27576
m:31,-31825
m:27,-21370
m:34,-10588
m:30,24678
m:27,3452
$GPRMC,140743.000,A,5132.330.06,K,A*3B
m:35,-1907
m:33,30105
m:25,25442
m:26,-17903
m:30,-31383
m:28,-5791
m:19,-28812
m:26,-16042
m:28,30587
m:27,-11166
m:29,-15520
m:29,28825
m:37,22778
m:34,-27059
m:34,-31462
m:30,-8146
m:30,-24052
m:35,24178
m:33,1625
m:23,30426
m:36,8388
m:33,15987
m:30,-17860
m:24,-29397
m:26,17283
m:30,1952
m:30,15266
m:40,19567
m:26,98
m:30,-17376
m:33,-21244
m:31,12253
$GPRMC,140746.000,A,5132.3819,N,00000.5589,W$GPGGA,140747.000,5132.3820,N,00000.5590,W,1,08,1.09,16.3,M,47.0,M,,*4D
$GPRMC,140749.000,A,5132.3821,N,0000,8
m:22,7314
m:30,28864
m:35,23543
m:44,-20962
m:32,-15280
m:20,237
m:25,-21812
m:32,-8156
m:23,-29104
m:33,-1210
m:33,-26264
m:28,30548
m:28,1316
m:37,-22304
m:26,29137
m:34,-10641
m:54,-31245
m:24,-4143
m:25,-15682
m:24,-23045
m:31,-1058
m:30,-9591
m:21,-14364
m:35,-8082
m:31,16218
m:31,-26890
m:33,13252
m:32,10513
m:24,9096
m:23,24318
m:31,15186
m:26,-6036
$GPRMC,140751.000,A,5132.3822,N,00000.5592,W$GPGGA,140752.000,5132.3823,N,00000.5592,W,1,08,1.04,16.2,M,47.0,M,,*44
m:28,24746
m:29,-19681
m:29,-10936
m:33,9791
m:30,-9104
m:26,-24008
m:26,-13212
m:24,27678
m:28,30061
m:31,-21418
m:34,-26565
m:34,-29244
m:29,-25348
m:28,-9523
m:36,8438
m:29,25708
m:33,-8807
m:32,-31528
m:26,-17934
m:29,283
m:27,-2684
m:29,-30344
m:30,-4128
m:31,-3173
m:37,15474
m:30,-6315
m:34,17732
m:20,32468
m:30,-2555
m:34,-24998
m:24,19323
m:46,19016
$GPRMC,140755.000,A,5132.3824,N,00000.5590,W,0.19,33$GPGGA,140756.000,5132.3824,N,00000.5590,W,1,08,1.04,16.2,M,47.0,M,,*45
