writing flop buffer
m:41,13522
m:0,2182
m:38,2873
m:35,-24630
m:33,31757
m:32,3247
m:35,24016
m:39,-29220
m:43,4598
m:27,-20912
m:32,-5274
m:31,17511
m:28,-21853
m:34,32590
m:37,14872
m:31,7594
m:39,28662
m:29,-23136
m:30,22055
m:31,-4582
m:28,-31244
m:30,-9950
m:30,12518
m:45,2356
m:39,31264
m:34,-21313
m:32,-22992
m:25,18404
m:32,-21645
m:28,19294
m:33,6790
m:31,20120
ŠµÁ11,MTKGPS*08
$PMTK010,001*2E
$PMTK010,002*2D
$GPGGA,140642,,,,,,2.02,1.77,0.97*0C
$GPGSV,4,1,13,27,79,305,19,16,52,180,,20,49,926,5,167,30*79
$GPGSV,4,3,13,07,19,305,,18,11,238,,30,09,332,,15,08,050,32*7505468,W,28.37,108.01,040718,,,A*4C
$GPVTG,108.01,T,,M,28.37,N,52.56,K$GPGGA,140646.000,5132.3556,N,00000.5427,W,1,05,1.77,15.3,M,47.0,M,,*4B0.3556,N,00000.5427,W,27.55,108.83,040718,,,A*44
$GPVTG,108.83,T,,M,$GPGGA,140647.000,5132.3557,N,00000.5393,W,1,05,1.77,15.1,M,47.PGSA,A,3,27,20,10,21,26,,,,,,,,2.02,1.77,0.97*0C
$GPRMC,140647.000,A3,,M,27.18,N,50.36,K,A*38
$GPGGA,140648.000,5132.3550,N,00000.5336,W,1,05,1.77,14.9,M,47.0,M,,*4F
$GPGSA,A,3,27,20,10,21,26,,,,,,,,2.02,1.77,,A*4writing flip buffer
m:36,24225
m:31,-25486
m:37,-9861
m:27,-18731
m:31,32497
m:33,-32675
m:26,31841
m:31,28672
m:39,-7476
m:28,-17696
m:43,-28853
m:32,-14017
m:27,-21808
m:35,-16993
m:40,-27400
m:27,600
m:36,13220
m:26,22806
m:25,-9342
m:31,1966
m:27,25776
m:35,7174
m:34,-21052
m:38,29200
m:50,-27290
m:30,17512
m:31,-32416
m:21,7134
m:40,-25387
m:28,4914
m:33,23946
m:32,-18690
D
$GPVTG,108.16,T,,M,26.83,N,49.71,K,A*37
$GPGGA,140649.000,5132.3549,N,00000.5331,W,1,05,1.77,14.7,M,47.FGPGSA,A,3,27,20,10,21,26,,,,,,,,2.02,1.77,0.97*0C
$GPRMC,140649.000,8,,M,26.01,N,48.20,K,A*36
$GPGGA,140650.000,5132.3544,N,00000.5311,W,1,05,1.77,14.6,M,47.0,M,,*49
$GPGSA,A,3,27,20,10,21,26,,,,,,,,2.30,43,136,24*74
$GPGSV,4,2,13,08,40,289,,21,36,064,27,33,29,199,,26,2,,34*73
$GPGSV,4,4,13,11,01,257,*4A
$GPRMC,140650.000,A,5132.3544,N,45.94,K,A*34
$GPGGA,140651.000,5132.3530,N,00000.5248,W,1,05,1.77,14.5,M,47.0,M,,*45
$GPGSA,A,3,27,20,10,21,26,,,,,,,,2.02,1.77,0.97*0C
$GPRMC,$VTG,109.71,T,,M,23.77,N,44.04,K,A*36
$GPGGA,140652.000,5132.3530,N,00000.5238,W,1,05,1.77,14.4,M,47.0,M,,*40
$GPGSA,A,3,27,20,10,21,26,W.77,109.35,040718,,,A*43
$GPVTG,109.35,T,,M,21.77,N,40.33,K,A*34
writing flop buffer
m:30,23349
m:29,-21548
m:29,-15080
m:36,17286
m:27,-2091
m:25,28619
m:34,12977
m:29,-23830
m:26,7428
m:29,-3391
m:28,-26292
m:24,20111
m:32,57
m:18,14888
m:30,15939
m:33,-2193
m:22,-24224
m:31,-7212
m:28,-23514
m:30,1368
m:48,25496
m:28,3296
m:32,-28216
m:21,5027
m:20,2775
m:23,32739
m:30,6622
m:27,-2407
m:19,5501
m:44,-11163
m:44,12503
m:30,6316
$GPGGA,140653.000,5132.3523,N,00000.5190,W,1,05,1.77,14.3,M,47.0,M,,*45
$GPGSA,A,3,27,20,10,21,26,,,,,,,,2.02,1.77,0.97*0C1,A*46
$GPVTG,108.73,T,,M,20.63,N,38.23,K,A*3D
$GPGGA,140654.000,5132.3515,N,00000.5143,W,1,05,1.77,14.2,M,47.0,M,,*48
$GPGSA,A,3,27,20,10,21,26,,,,,,,,2.02,1.77,0.9748,,,A*40
$GPVTG,108.15,T,,M,19.41,N,35.96,K,A*34
$GPGGA,140655.000,5132.3501,N,00000.5116,W,1,05,1.77,14.1,M,47.0,M,,*4F
$GPGSA95,26,16,52,180,,20,49,094,32,10,43,136,29*74
$GPGSV,4,2,13,08,40,283,18,11,238,,30,09,332,,15,08,049,31*7E
$GPGSV,4,4,13,11,01,257,*4A8A*41
$GPVTG,109.58,T,,M,17.42,N,32.28,K,A*33
$GPGGA,140656.000,5132.3493,N,00000.5097,W,1,07,1.69,14.0,M,47.0,M,,*42
$GPGSA,A,3,27,30,20,10,21,26097,W,1writing flip buffer
m:21,29481
m:34,11924
m:44,-19186
m:29,-4482
m:34,25608
m:32,-1695
m:33,11412
m:38,30758
m:25,1102
m:30,31472
m:33,-14120
m:21,-17324
m:33,-19278
m:26,-13721
m:29,25783
m:31,24054
m:27,-6528
m:37,15320
m:28,-2640
m:28,-13454
m:32,25115
m:38,11929
m:28,7440
m:34,-915
m:27,-11440
m:28,-9928
m:26,-3568
m:20,-18209
m:27,8741
m:42,24951
m:38,25725
m:36,-11912
5.75,109.42,040718,,,A*4D
$GPVTG,109.42,T,,M,15.75,N,29.18,K,A$GPGGA,140657.000,5132.3491,N,00000.5092,W,1,07,1.69,14.0,M,47.GA,3,27,30,20,10,21,26,16,,,,,,1.94,1.69,0.96*0A
$GPRMC,140657.000,A.T,,M,14.10,N,26.14,K,A*3A
$GPGGA,140658.000,5132.3500,N,00000.5125,W,1,07,1.69,14.1,M,47.0,M,,*4E
$GPGSA,A,3,27,30,20,10,21,26,16,,,,,,1.94,1.69,0.96*0A
$$TG,107.90,T,,M,12.01,N,22.26,K,A*34
$GPGGA,140659.000,5132.3534,N,00000.5237,W,1,07,1.69,14.2,M,47.0,M,,*4B
$GPGSA,A,3,27,30,20,10,21,26,1W.48,104.00,040718,,,A*7F
$GPVTG,104.00,T,,M,8.48,N,15.72,K,A*0D
$GPGGA,140700.000,5132.3549,N,00000.5273,W,1,08,1.18,14.3,M,47.,0,21,26,08,16,,,,,1.50,1.18,0.93*09
$GPGSV,4,1,13,27,79,305,28,16,5,064,25writing flop buffer
m:25,-3338
m:29,-8886
m:36,-471
m:51,23526
m:36,-19475
m:31,17932
m:22,-20386
m:140,-14663
m:36,-7908
m:28,2126
m:35,20328
m:32,3502
m:29,-25228
m:22,-18224
m:32,31561
m:33,-12392
m:31,-7932
m:32,23190
m:28,25876
m:28,-31079
m:27,30188
m:33,-32588
m:28,-64
m:28,-11747
m:44,-11679
m:31,-17121
m:27,24865
m:26,22449
m:32,6323
m:28,10224
m:32,23610
m:27,-18824
,37,27,153,,26,25,167,35*72
$GPGSV,4,3,13,07,19,305,,18,11,238$GPGGA,140701.000,5132.3599,N,00000.5421,W,1,09,0.92,14.5,M,47.0,M,,*4D
$GPGSA,A,3,15,27,30,20,10,21,26,08,16,,,,1.23,,718,,,A*76
$GPVTG,100.44,T,,M,2.32,N,4.30,K,A*38
$GPGGA,140702.000,5132.3624,N,00000.5489,W,1,09,0.92,14.6,M,47.,08,16,,,,1.23,0.92,0.82*0A
$GPRMC,140702.000,A,5132.3624,N,00000.54$GPGGA,140703.000,5132.3636,N,00000.5509,W,1,09,0.92,14.7,M,47.0,M,,*40
$GPGSA,A,3,15,27,30,20,10,21,26,08,16,,,,1.23,40718,,,A*7E
$GPVTG,100.44,T,,M,2.35,N,4.36,K,A*39
$GPGGA,140704.000,5132.3643,N,00000.5517,W,1,09,0.92,14.8,M,47.0,M,,*45
$GPGSA,A,3,15,27,30,20,10,21,26,08,16,400.44,040718,,,A*74
$GPVTG,100.44,T,,M,2.24,N,4.15,K,A*38
writing flip buffer
m:29,22184
m:32,2714
m:36,-4950
m:24,-22484
m:30,-22428
m:32,16086
m:36,467
m:27,-14525
m:24,-7587
m:24,-24961
m:29,-27570
m:20,-10386
m:30,-1656
m:36,-14222
m:36,16391
m:31,10729
m:26,31551
m:22,-9881
m:21,8694
m:31,13360
m:24,13612
m:25,-15676
m:24,-7666
m:26,-654
m:29,-6830
m:34,-13603
m:34,-14817
m:28,-21788
m:28,-32489
m:31,14136
m:19,-2031
m:29,-9852
$GPGGA,140705.000,5132.3654,N,00000.5531,W,1,09,0.92,14.9,M,47.30,49,094,25,10,43,136,33*75
$GPGSV,4,2,13,08,40,289,24,21,36,064,21,39,2615,08,049,20*7A
$GPGSV,4,4,13,11,01,257,*4A
$GPRMC,140705.000,A,51324,4.57,K,A*3B
$GPGGA,140706.000,5132.3664,N,00000.5537,W,1,08,1.04,15.0,M,47.,26,08,16,,,,,1.35,1.04,0.86*04
$GPRMC,140706.000,A,5132.3664,N,0000*
$GPGGA,140707.000,5132.3672,N,00000.5543,W,1,08,1.04,15.1,M,47.0,M,,*42
$GPGS,132.3672,N,00000.5543,W,2.84,100.44,040718,,,A*7E
$GPVTG,100.44,T,,$GPGGA,140708.000,5132.3682,N,00000.5548,W,1,08,1.04,15.2,M,47.0,M,,*4A
$GPGSA,132.3682,N,00000.5548,W,2.92,1.02,040718,,,A*70
$GPVTG,1.02,T,,M,2.92,N,5.4writing flop buffer
m:28,-6614
m:22,3659
m:24,18124
m:20,18584
m:22,25161
m:28,-16883
m:30,23714
m:27,20200
m:31,-25667
m:26,-31383
m:27,15594
m:28,28924
m:28,15387
m:32,15466
m:23,5723
m:36,10094
m:32,3773
m:21,18392
m:31,-18880
m:30,-16577
m:39,-17830
m:31,-15285
m:36,-32576
m:28,13764
m:15,-6865
m:29,15686
m:26,-22237
m:28,30777
m:26,15126
m:33,7385
m:23,8116
m:46,23164
$GPGGA,140709.000,5132.3692,N,00000.5556,W,1,08,1.04,15.2,M,47.$GPGGA,140710.000,5132.3703,N,00000.5556,W,1,08,1.04,15.3,M,47.0,M,,*45
$GPGSA,A,3,15,27,20,10,21,26,08,16,,,,,1.35,1.04,1
$GPGSV,4,2,13,08,40,289,20,21,36,064,18,39,26,149,,26,25,167,37*78P,4,4,13,11,01,257,*4A
$GPRMC,140710.000,A,5132.3703,N,00000.5556,W,$GPGGA,140711.000,5132.3713,N,00000.5559,W,1,08,1.04,15.4,M,47.
GSA,A,3,15,27,20,10,21,26,08,16,,,,,1.35,1.04,0.86*04
$GPRMC,140711.3,N,6.63,K,A*01
$GPGGA,140712.000,5132.3722,N,00000.5559,W,1,08,1.04,15.5,M,47.0,M,,*4D
$GPGSA,A,3,15,27,20,10,21,26,08,16,,,,,1.35,1.04,0.86*04$GPVTG,13.60,T,,M,3.07,N,5.69,K,A*07
writing flip buffer
m:35,2316
m:27,2379
m:29,-25022
m:28,20728
m:39,30579
m:26,18455
m:31,-26711
m:23,31268
m:44,-28098
m:31,-22762
m:25,9468
m:30,24165
m:30,-20806
m:31,-12107
m:32,-5034
m:31,31877
m:25,21911
m:28,19271
m:21,-24656
m:28,-23327
m:24,-19851
m:32,-27078
m:33,15342
m:25,-32661
m:27,-30710
m:41,-26724
m:28,-26136
m:34,20062
m:28,-19030
m:24,26136
m:35,-13899
m:35,-13507
$GPGGA,140713.000,5132.3728,N,00000.5560,W,1,08,1.04,15.6,M,47.$GPGGA,140714.000,5132.3737,N,00000.5560,W,1,08,1.04,15.7,M,47.28,16,,,,,1.35,1.04,0.86*04
$GPRMC,140714.000,A,5132.3737,N,00000.556$GPGGA,140715.000,5132.3745,N,00000.5565,W,1,08,1.04,15.9,M,47.0,M,,*48
$GPGSA,A,3,15,27,20,10,21,26,0800,43,136,33*7C
$GPGSV,4,2,13,08,40,289,20,21,36,064,22,26,25,167,36010,*75
$GPGSV,4,4,13,11,01,257,*4A
$GPRMC,140715.000,A,5132.3745,NA
$GPGGA,140716.000,5132.3755,N,00000.5570,W,1,08,1.04,16.0,M,47.0,M,,*44
$GPGSA,A,3,15,27,20,10,21,26,08,16,,,,,1.35,1.04,0.86*04
G90,T,,M,2.65,N,4.91,K,A*3B
$GPGGA,140717.000,5132.3762,N,00000.5575,W,1,08writing flop buffer
m:33,-22030
m:19,-4775
m:36,26657
m:34,-31312
m:24,5634
m:24,-31812
m:30,-5228
m:30,20161
m:29,-193
m:34,-13184
m:30,-28682
m:27,-29073
m:29,-26763
m:26,-25874
m:31,-3210
m:33,-13318
m:28,-20648
m:27,-11051
m:28,-26958
m:28,-31185
m:30,-17780
m:33,20088
m:33,-4394
m:29,29916
m:35,10454
m:26,-14364
m:32,12935
m:28,4160
m:25,27133
m:26,-21997
m:38,-28398
m:25,-22408
,1.04,16.0,M,47.0,M,,*44
$GPGSA,A,3,15,27,20,10,21,26,08,16,,,$GPGGA,140718.000,5132.3769,N,00000.5579,W,1,08,1.04,16.1,M,47.0,M,,*4D
$GPGSA,A,3,15,27,20,10,21,26,08,W63,2.90,040718,,,A*71
$GPVTG,2.90,T,,M,2.63,N,4.87,K,A*3A
$GPGGA,140719.000,5132.3776,N,00000.5582,W,1,08,1.04,16.1,M,47.20,21,26,08,16,,,,,1.35,1.04,0.86*04
$GPRMC,140719.000,A,5132.3776,NA
$GPGGA,140720.000,5132.3783,N,00000.5584,W,1,08,1.04,16.2,M,47.0,M,,*43
$GPGSA,A,3,15,27,20,10,21,26,08,16,,,,,1.35,1.04,0.
GSV,4,2,13,08,40,289,22,21,36,064,22,26,25,167,31,07,19,305,*7E
$GPGSV,4,3,11,257,*4A
$GPRMC,140720.000,A,5132.3783,N,00000.5584,W,2.55,2.90,04$GPGGA,140721.000,5132.3790,N,00000.5587,W,1,08,1.04,16.3,M,47.17,20,1writing flip buffer
m:39,6380
m:32,25674
m:30,30482
m:29,17835
m:24,3070
m:28,716
m:33,-2018
m:33,7647
m:33,-15450
m:36,-27229
m:25,20050
m:26,-23024
m:20,6908
m:27,-4435
m:31,31577
m:25,11191
m:23,-26443
m:25,-13396
m:25,-19416
m:25,25046
m:23,-20052
m:33,25454
m:30,-15618
m:26,30967
m:40,8094
m:35,4052
m:34,31906
m:31,28922
m:38,-30074
m:27,-7428
m:33,18698
m:26,-18558
0,21,26,08,16,,,,,1.35,1.04,0.86*04
$GPRMC,140721.000,A,5132.3$GPGGA,140722.000,5132.3797,N,00000.5590,W,1,08,1.04,16.3,M,47.0,*40
$GPGSA,A,3,15,27,20,10,21,26,08,16,,,,,1.35,1.04,0.86*04
$GPRP,2.90,T,,M,2.56,N,4.75,K,A*31
$GPGGA,140723.000,5132.3805,N,00000.5591,W,1,08,1.04,16.3,M,47.0,M,,*44
$GPGSA,A,3,15,27,20,10,21,26,08,16,,546.46,040718,,,A*75
$GPVTG,346.46,T,,M,3.56,N,6.60,K,A*3E
$GPGGA,140724.000,5132.3811,N,00000.5596,W,1,08,1.04,16.3,M,47.,*41
$GPGSA,A,3,15,27,20,10,21,26,08,16,,,,,1.35,1.04,0.86*04
$GPRMCP,335.53,T,,M,3.16,N,5.86,K,A*31
$GPGGA,140725.000,5132.3817,N,0000writing flop buffer
m:142,-22343
m:31,-11055
m:44,-13259
m:30,-20400
m:27,-15992
m:31,-32476
m:29,-16150
m:27,27947
m:36,25000
m:22,25363
m:32,-15692
m:23,-29742
m:25,-19058
m:33,31674
m:28,-17485
m:25,29824
m:31,1296
m:37,-17004
m:28,-15860
m:33,15610
m:31,24180
m:33,-13950
m:29,-27564
m:29,4382
m:29,-13224
m:38,-23732
m:25,-3652
m:29,-11906
m:32,-23268
m:27,14073
m:32,-3373
m:34,-27866
0.5597,W,1,08,1.04,16.3,M,47.0,M,,*47
$GPGSA,A,3,15,27,20,10,2$GPGGA,140726.000,5132.3820,N,00000.5598,W,1,08,1.04,16.2,M,47.0,M,,*4E
$GPGSA,A,3,15,27,20,10,21,26,08,16,,,,,1.35,1.04,0.86*04
V335.53,T,,M,0.06,N,0.11,K,A*38
$GPGGA,140727.000,5132.3822,N,00000.5600,W,1,08,1.04,16.2,M,47.0,M,,*4F
$GPGSA,A,3,15,27,20,10,21,26,08,16,,,,,353,040718,,,A*7E
$GPVTG,335.53,T,,M,0.10,N,0.18,K,A*36
$GPGGA,140728.000,5132.3821,N,00000.5597,W,1,08,1.04,16.2,M,47.0,M,,*4E
$GPGSA,A,3,15,27,20,10,21,2.7,W,0.08,335.53,040718,,,A*76
$GPVTG,335.53,T,,M,0.08,N,0.15,K,A*32$GPGGA,140729.000,5132.3819,N,00000.5595,W,1,08,1.04,16.2,M,47.17,20,writing flip buffer
m:141,32674
m:30,-14109
m:20,31675
m:43,-20074
m:34,-15328
m:31,-22488
m:25,-18034
m:34,-10464
m:34,14628
m:32,17958
m:34,-17513
m:36,-28373
m:29,26781
m:21,-751
m:30,21020
m:23,26029
m:31,13392
m:36,31622
m:26,9905
m:33,-14121
m:40,31533
m:30,29939
m:28,-23314
m:28,27614
m:25,-31116
m:28,-20146
m:24,-14656
m:29,-16891
m:28,5461
m:34,-1093
m:27,26796
m:34,26054
10,21,26,08,16,,,,,1.35,1.04,0.86*04
$GPRMC,140729.000,A,5132.$GPGGA,140730.000,5132.3818,N,00000.5594,W,1,08,1.04,16.2,M,47.0,M,,*4E
$GPGSA,A,,,27,16,52,180,33,20,49,094,24,10,44,136,34*79
$GPGSV,4,2,13,08,40,2858,11,238,15,30,09,332,,15,08,049,27*7D
$GPGSV,4,4,13,11,01,257,*4APVTG,335.53,T,,M,0.03,N,0.06,K,A*3B
$GPGGA,140731.000,5132.3817,N,00000.5592,W,1,08,1.04,16.2,M,47.0,M,,*46
$GPGSA,A,3,15,27,20,10,21,26,08,16,,,,,1.35,1.04,0.86*04
$GPRG5.53,T,,M,0.02,N,0.05,K,A*39
$GPGGA,140732.000,5132.3817,N,00000.5592,W,1,08,1.04,16.2,M,47.0,M,,*45
$GPGSA,A,3,15,27,20,10,21,26,08,16,,,,15.53,040718,,,A*74
$GPVTG,335.53,T,,M,0.01,N,0.02,K,A*3D
$GPGGA,140733.000,5132.3817,N,00000.5591,W,1,08,1.04,16.2,M,47.0,M,,*47
$GPGSA,A,3,15,27,20,10,21,26,0810.01,writing flop buffer
m:143,1190
m:29,-20457
m:32,28460
m:37,6268
m:24,29583
m:24,-10854
m:37,-19941
m:20,30699
m:24,24749
m:35,-17074
m:37,-15520
m:29,-25484
m:35,22994
m:31,-18910
m:33,19824
m:28,-24086
m:29,-15449
m:26,1580
m:20,17014
m:30,25734
m:26,-30349
m:31,29788
m:24,-8992
m:34,32755
m:38,-8179
m:29,7494
m:29,12251
m:52,11298
m:26,10008
m:30,-22402
m:28,-11779
m:34,-14951
335.53,040718,,,A*76
$GPVTG,335.53,T,,M,0.01,N,0.02,K,A*3D
$GPGGA,140734.000,5132.3816,N,00000.5591,W,1,08,1.04,16.2,M,47.,1
$GPGSA,A,3,15,27,20,10,21,26,08,16,,,,,1.35,1.04,0.86*04
$GPRMC,1T35.53,T,,M,0.02,N,0.03,K,A*3F
$GPGGA,140735.000,5132.3816,N,00000.5590,W,1,08,1.04,16.2,M,47.,26,08,16,,,,,1.35,1.04,0.86*04
$GPGSV,4,1,13,27,79,305,27,16,52,18049,33,29,199,,26,25,167,33*71
$GPGSV,4,3,13,07,19,305,,18,11,238,15,3.,A,5132.3816,N,00000.5590,W,0.00,335.53,040718,,,A*71
$GPVTG,335.53$GPGGA,140736.000,5132.3816,N,00000.5590,W,1,08,1.04,16.3,M,47.28,16,,,,,1.35,1.04,0.86*04
$GPRMC,140736.000,A,5132.3816,N,00000.55E$GPGGA,140737.000,5132.3816,N,00000.5591,W,1,08,1.04,16.3,M,47.0,M,,*43
$GPGSA,A,3,15,27,20,10,21,26,08,16,,,,,1.35,1.04,0.86*03GPVTGwriting flip buffer
m:22,-19169
m:26,18335
m:32,-8679
m:27,21924
m:35,20500
m:36,-6239
m:36,7450
m:38,-18455
m:29,1120
m:28,-8102
m:27,23914
m:23,-14477
m:32,3880
m:26,-13352
m:28,-12740
m:26,24191
m:28,-30650
m:41,28080
m:31,17007
m:26,10551
m:31,-22788
m:27,-12176
m:26,20944
m:33,-3002
m:36,-6154
m:27,-5126
m:29,-14983
m:27,-7256
m:29,-17346
m:28,-29484
m:35,-23416
m:30,15299
,335.53,T,,M,0.01,N,0.01,K,A*3E
$GPGGA,140738.000,5132.3816,N,00000.5591,W,1,08,1.04,16.3,M,47.,1.35,1.04,0.86*04
$GPRMC,140738.000,A,5132.3816,N,00000.5591,W,0.01,$GPGGA,140739.000,5132.3816,N,00000.5591,W,1,08,1.04,16.3,M,47.0,M,,*4D
$GPGSA,A,3,15,27,20,10,21,26,08,16,,,,,1.35,1.04,0.86*0,D
$GPVTG,335.53,T,,M,0.01,N,0.01,K,A*3E
$GPGGA,140740.000,5132.3816,N,00000.5591,W,1,08,1.04,16.3,M,47.0,M,,*43
$GPGSA,A,16,52,180,33,20,49,094,25,10,44,136,34*78
$GPGSV,4,2,13,08,40,289,211,238,13,30,09,332,,15,08,049,26*7A
$GPGSV,4,4,13,11,01,257,*4A
$GP
VTG,335.53,T,,M,0.01,N,0.01,K,A*3E
$GPGGA,140741.000,5132.3816,N,00000.5591,W,1,08,1.04,16.3,M,47.2GPGSA,A,3,15,27,20,10,21,26,08,16,,,,,1.35,1.04,0.86*04
$GPRMC,1407433,T,,M,0.01,N,0.02,K,A*3D
writing flop buffer
m:26,-24076
m:28,17723
m:29,4902
m:33,-2092
m:36,25229
m:39,-23303
m:33,26404
m:33,-15440
m:21,-12394
m:13,-23007
m:30,28486
m:29,21194
m:33,-3908
m:29,-26406
m:29,-12391
m:27,-21856
m:29,13014
m:35,-26657
m:32,-19305
m:34,-8360
m:34,14449
m:30,10149
m:28,-22368
m:33,8125
m:29,30771
m:36,-16534
m:40,-27576
m:31,-31825
m:27,-21370
m:34,-10588
m:30,24678
m:27,3452
$GPGGA,140742.000,5132.3816,N,00000.5591,W,1,08,1.04,16.3,M,47.0,M,,*41
$GPGSA,A,3,15,278N,00000.5591,W,0.02,335.53,040718,,,A*72
$GPVTG,335.53,T,,M,0.02,N,$GPGGA,140743.000,5132.3816,N,00000.5590,W,1,08,1.04,16.3,M,47.17,20,10,21,26,08,16,,,,,1.35,1.04,0.86*04
$GPRMC,140743.000,A,5132.330.06,K,A*3B
$GPGGA,140744.000,5132.3817,N,00000.5590,W,1,08,1.04,16.3,M,47.0,M,,*47
$GPGSA,A,3,15,27,20,10,21,26,08,16,,,,,1.35,1.04,0.86,*72
$GPM,0.04,N,0.07,K,A*3D
$GPGGA,140745.000,5132.3818,N,00000.5589,W,1,08,1.09,16.3,M,47.,,,,,2.00,1.09,1.68*0D
$GPGSV,4,1,13,27,79,306,27,16,52,180,33,20,49,73,,26,25,167,34*70
$GPGSV,4,3,13,07,19,305,,18,11,238,13,30,09,331,13818,N,00000.5589,W,0.03,335.53,040718,,,A*73
$GPVTG,335.53,T,,M,0.0writing flip buffer
m:35,-1907
m:33,30105
m:25,25442
m:26,-17903
m:30,-31383
m:28,-5791
m:19,-28812
m:26,-16042
m:28,30587
m:27,-11166
m:29,-15520
m:29,28825
m:37,22778
m:34,-27059
m:34,-31462
m:30,-8146
m:30,-24052
m:35,24178
m:33,1625
m:23,30426
m:36,8388
m:33,15987
m:30,-17860
m:24,-29397
m:26,17283
m:30,1952
m:30,15266
m:40,19567
m:26,98
m:30,-17376
m:33,-21244
m:31,12253
$GPGGA,140746.000,5132.3819,N,00000.5589,W,1,08,1.09,16.3,M,47.06,,,,,2.00,1.09,1.68*0D
$GPRMC,140746.000,A,5132.3819,N,00000.5589,W$GPGGA,140747.000,5132.3820,N,00000.5590,W,1,08,1.09,16.3,M,47.0,M,,*4D
$GPGSA,A,3,15,27,20,10,21,2.0,W,0.03,335.53,040718,,,A*72
$GPVTG,335.53,T,,M,0.03,N,0.05,K,A*38$GPGGA,140748.000,5132.3821,N,00000.5591,W,1,08,1.04,16.3,M,47.0,M,,*4F
$GPGSA,A,3,3,N,00000.5591,W,0.03,335.53,040718,,,A*7D
$GPVTG,335.53,T,,M,0.03,N$GPGGA,140749.000,5132.3821,N,00000.5591,W,1,08,1.04,16.3,M,47.,,26,08,16,,,,,1.35,1.04,0.86*04
$GPRMC,140749.000,A,5132.3821,N,0000,8
writing flop buffer
m:22,7314
m:30,28864
m:35,23543
m:44,-20962
m:32,-15280
m:20,237
m:25,-21812
m:32,-8156
m:23,-29104
m:33,-1210
m:33,-26264
m:28,30548
m:28,1316
m:37,-22304
m:26,29137
m:34,-10641
m:54,-31245
m:24,-4143
m:25,-15682
m:24,-23045
m:31,-1058
m:30,-9591
m:21,-14364
m:35,-8082
m:31,16218
m:31,-26890
m:33,13252
m:32,10513
m:24,9096
m:23,24318
m:31,15186
m:26,-6036
$GPGGA,140750.000,5132.3822,N,00000.5591,W,1,08,1.09,16.3,M,47.025,39,26,149,,26,25,167,34*74
$GPGSV,4,3,13,07,19,305,,18,11,238,13.5132.3822,N,00000.5591,W,0.13,335.53,040718,,,A*76
$GPVTG,335.53,T,,$GPGGA,140751.000,5132.3822,N,00000.5592,W,1,08,1.04,16.3,M,47.06,,,,,1.35,1.04,0.86*04
$GPRMC,140751.000,A,5132.3822,N,00000.5592,W$GPGGA,140752.000,5132.3823,N,00000.5592,W,1,08,1.04,16.2,M,47.0,M,,*44
$GPGSA,A,3,15,27,20,10092,W,0.16,335.53,040718,,,A*73
$GPVTG,335.53,T,,M,0.16,N,0.30,K,A*3$GPGGA,140753.000,5132.3823,N,00000.5592,W,1,08,1.09,16.2,M,47.0,M,,*48
$GPGSA,A,3,15,27,20,N000.5592,W,0.32,335.53,040718,,,A*74
$GPVTG,335.53,T,,M,0.32,N,0.60,writing flip buffer
m:28,24746
m:29,-19681
m:29,-10936
m:33,9791
m:30,-9104
m:26,-24008
m:26,-13212
m:24,27678
m:28,30061
m:31,-21418
m:34,-26565
m:34,-29244
m:29,-25348
m:28,-9523
m:36,8438
m:29,25708
m:33,-8807
m:32,-31528
m:26,-17934
m:29,283
m:27,-2684
m:29,-30344
m:30,-4128
m:31,-3173
m:37,15474
m:30,-6315
m:34,17732
m:20,32468
m:30,-2555
m:34,-24998
m:24,19323
m:46,19016
$GPGGA,140754.000,5132.3824,N,00000.5591,W,1,08,1.04,16.2,M,47.$GPGGA,140755.000,5132.3824,N,00000.5590,W,1,08,1.04,16.2,M,47.0,M,,*46
$GPGSA,A,3,15,27,20,10,21,26,08,16,,,,,1.35,1.04,0.86*049GPGSV,4,2,13,08,40,289,18,21,36,064,24,39,26,149,,26,25,167,36*7D
$G4,4,13,11,01,257,*4A
$GPRMC,140755.000,A,5132.3824,N,00000.5590,W,0.19,33$GPGGA,140756.000,5132.3824,N,00000.5590,W,1,08,1.04,16.2,M,47.0,M,,*45
$GPGSA,A,3,15,27,20,10,21,26,08,16,,,,,1.35,1.018,,,A*70
$GPVTG,335.53,T,,M,0.05,N,0.10,K,A*3A
$GPGGA,140757.000,5132